X,Y,DATEEND,TIMESTART,TIMEEND,ADDRESS,QualityOfLife,CODE_DEFINED,LAT,LONG,ObjectId
-8476516.24614557,5311491.33169893,2021/05/02 04:00:00+00,1000,1321,100 AMIDON DR     ,False,OFFN AGAINST FAMILY,42.9968430000001,-76.145841,1
-8479620.05618786,5322321.931704,2022/06/12 04:00:00+00,1400,1412,1 DESTINY USA DR,False,OFFN AGAINST FAMILY,43.067961,-76.1737229999999,2
-8477618.80993081,5319295.72084822,2023/01/01 05:00:00+00,43,43,200 WALTON ST     ,False,DISORDERLY CONDUCT,43.048098,-76.155745499,3
-8477291.19678073,5319070.88521648,2023/01/01 05:00:00+00,113,113,400 N  SALINA ST     ,False,SIMPLE ASSAULT,43.0466220000001,-76.1528025,4
-8477553.6880287,5319927.75730566,2023/01/01 05:00:00+00,148,148,300 W  GENESEE ST     ,False,ALL OTHER OFFENSES,43.0522470000001,-76.155160499,5
-8477443.98289316,5319085.96548592,2023/01/01 05:00:00+00,538,538,500 S  CLINTON ST     ,False,SIMPLE ASSAULT,43.046721,-76.1541750009999,6
-8478541.53730131,5318251.10355444,2023/01/01 05:00:00+00,545,545,700 OSWEGO ST     ,False,CRIMINAL MISCHIEF,43.0412400000001,-76.1640345,7
-8472883.94682073,5318795.33185098,2023/01/01 05:00:00+00,701,701,2500 E  GENESEE ST     ,False,OFFN AGAINST FAMILY,43.044813,-76.1132115,8
-8475612.55451931,5324136.48292589,2023/01/01 05:00:00+00,820,820,700 DARLINGTON RD     ,False,DRIVING UNDER INFLUENCE,43.079868,-76.1377229999999,9
-8478541.53730131,5318251.10355444,2023/01/01 05:00:00+00,1248,1248,700 OSWEGO ST     ,False,CRIMINAL MISCHIEF,43.0412400000001,-76.1640345,10
-8476767.21593756,5322038.05422117,2023/01/01 05:00:00+00,1423,1423,500 CARBON ST     ,False,SIMPLE ASSAULT,43.0660980000001,-76.1480955,11
-8478333.14721455,5322897.94151659,2023/01/01 05:00:00+00,1806,1806,1200 CARBON ST     ,False,SIMPLE ASSAULT,43.071741,-76.1621625,12
-8474849.12545145,5315207.02541757,2023/01/01 05:00:00+00,1850,1850,300 VINCENT ST     ,False,SIMPLE ASSAULT,43.0212510000001,-76.130865,13
-8471974.24394197,5318167.48438346,2023/01/01 05:00:00+00,2325,2325,200 BROOKFORD RD     ,False,CRIMINAL MISCHIEF,43.040691,-76.1050395,14
-8477642.35400311,5321881.71958129,2023/01/02 05:00:00+00,117,117,300 W  KIRKPATRICK ST     ,False,SIMPLE ASSAULT,43.065072,-76.155956999,15
-8480657.49818231,5317155.88877369,2023/01/02 05:00:00+00,253,253,1700 W  ONONDAGA ST     ,False,SIMPLE ASSAULT,43.034049,-76.1830424999999,16
-8476786.25168181,5314195.7501306,2023/01/02 05:00:00+00,1306,1306,2600 MIDLAND AVE    ,False,SIMPLE ASSAULT,43.0146090000001,-76.148266501,17
-8476401.0304726,5322310.96043327,2023/01/02 05:00:00+00,1743,1743,200 FIRST NORTH ST     ,False,SIMPLE ASSAULT,43.067889,-76.144806,18
-8476738.66248818,5319966.14701444,2023/01/03 05:00:00+00,1654,1654,400 JAMES ST     ,False,OFFN AGAINST FAMILY,43.0524990000001,-76.147839,19
-8478420.31037584,5317664.41434322,2023/01/03 05:00:00+00,1752,1752,700 W  ONONDAGA ST     ,False,CRIMINAL MISCHIEF,43.0373880000001,-76.1629455,20
-8480015.79697764,5317440.98865011,2023/01/03 05:00:00+00,1838,1838,400 ROWLAND ST     ,False,POSSESSION/USE DANGEROUS WEAPONS,43.035921,-76.1772779999999,21
-8479620.05618786,5322321.931704,2020/12/23 05:00:00+00,1927,1927,1 DESTINY USA DR,False,OFFN AGAINST FAMILY,43.067961,-76.1737229999999,22
-8479345.04138586,5320192.37528778,2023/01/03 05:00:00+00,2344,2344,1000 W  GENESEE ST     ,False,POSSESSION/USE DANGEROUS WEAPONS,43.0539840000001,-76.1712525,23
-8476767.21593756,5322038.05422117,2023/01/04 05:00:00+00,1145,1145,500 CARBON ST     ,True,CRIMINAL MISCHIEF,43.0660980000001,-76.1480955,24
-8476379.99108884,5318626.71364986,2023/01/04 05:00:00+00,1130,1130,500 HARRISON ST     ,False,SIMPLE ASSAULT,43.043706,-76.144617,25
-8477231.08414438,5318644.53494196,2023/01/04 05:00:00+00,850,850,500 S  SALINA ST     ,False,SIMPLE ASSAULT,43.043823,-76.152262499,26
-8474120.76202319,5321401.76115726,2023/01/04 05:00:00+00,1225,1225,400 SHUART AVE    ,False,POSSESSION/USE DANGEROUS WEAPONS,43.061922,-76.1243219999999,27
-8476334.90658375,5320234.87939284,2023/01/04 05:00:00+00,1422,1422,600 JAMES ST     ,False,POSSESSION/USE DANGEROUS WEAPONS,43.054263,-76.1442119989999,28
-8469837.74461491,5318558.17053548,2023/01/04 05:00:00+00,1706,1706,100 GIFFORD ST     ,False,ALL OTHER OFFENSES,43.043256,-76.0858469999999,29
-8479345.04138586,5320192.37528778,2023/01/04 05:00:00+00,1659,1659,1000 W  GENESEE ST     ,True,CRIMINAL MISCHIEF,43.0539840000001,-76.1712525,30
-8476337.41149493,5318299.08210511,2023/01/04 05:00:00+00,1744,1744,1000 S  MCBRIDE ST     ,False,CRIMINAL MISCHIEF,43.0415550000001,-76.144234501,31
-8479837.96409109,5315209.76614964,2023/01/04 05:00:00+00,1230,628,300 CARLTON RD     ,False,FRAUD,43.0212690000001,-76.1756804999999,32
-8480168.08204104,5317553.3861839,2023/01/05 05:00:00+00,551,551,300 HARTSON ST     ,True,CRIMINAL MISCHIEF,43.036659,-76.178646,33
-8476337.41149493,5318299.08210511,2023/01/05 05:00:00+00,455,455,1000 S  MCBRIDE ST     ,False,SIMPLE ASSAULT,43.0415550000001,-76.144234501,34
-8478888.18619564,5317945.41743032,2023/01/05 05:00:00+00,1714,1714,200 SABINE ST     ,False,POSSESSION/USE DANGEROUS WEAPONS,43.0392330000001,-76.1671484999999,35
-8477567.71439586,5312688.6322306,2023/01/05 05:00:00+00,1934,1934,100 SMITH LN     ,False,POSSESSION/USE DRUG,43.004709,-76.1552865,36
-8472952.5752868,5319142.17397738,2023/01/06 05:00:00+00,1101,1101,400 ELLIS ST     ,False,ALL OTHER OFFENSES,43.04709,-76.113828,37
-8479353.55732691,5318943.38936565,2023/01/05 05:00:00+00,2121,2121,200 S  GEDDES ST     ,False,DRIVING UNDER INFLUENCE,43.0457850000001,-76.171329,38
-8481860.7505583,5319650.80765171,2023/01/06 05:00:00+00,1148,1148,1900 W  GENESEE ST     ,False,OFFN AGAINST FAMILY,43.0504290000001,-76.1938514999999,39
-8473217.07050825,5322981.60303909,2023/01/06 05:00:00+00,1422,1422,100 LINWILL TER    ,False,SIMPLE ASSAULT,43.0722900000001,-76.116204001,40
-8479620.05618786,5322321.931704,2023/01/06 05:00:00+00,1342,1342,1 DESTINY USA DR,False,OFFN AGAINST FAMILY,43.067961,-76.1737229999999,41
-8475612.55451931,5324136.48292589,2023/01/07 05:00:00+00,159,159,700 DARLINGTON RD     ,True,SIMPLE ASSAULT,43.079868,-76.1377229999999,42
-8479620.05618786,5322321.931704,2023/01/06 05:00:00+00,1406,1406,1 DESTINY USA DR,False,OFFN AGAINST FAMILY,43.067961,-76.1737229999999,43
-8476082.43408995,5319948.32320146,2023/01/07 05:00:00+00,628,628,200 CATHERINE ST     ,False,OFFN AGAINST FAMILY,43.0523820000001,-76.141944,44
-8476222.69664835,5321729.50152502,2023/01/07 05:00:00+00,912,912,1000 BUTTERNUT ST     ,True,CRIMINAL MISCHIEF,43.0640730000001,-76.143204,45
-8476328.89544256,5318090.71990164,2023/01/07 05:00:00+00,1744,1744,1100 S  MCBRIDE ST     ,False,KIDNAPPING,43.0401870000001,-76.1441579999999,46
-8480678.03662837,5319990.82619624,2023/01/07 05:00:00+00,1756,1756,1800 W  FAYETTE ST     ,False,OFFN AGAINST FAMILY,43.0526610000001,-76.183227,47
-8479854.49503548,5317816.56618537,2023/01/07 05:00:00+00,2313,2313,200 CADWELL ST     ,False,POSSESSION/USE DANGEROUS WEAPONS,43.0383870000001,-76.175829,48
-8477650.36911777,5322774.5078519,2023/01/08 05:00:00+00,226,226,600 COURT ST     ,False,CRIMINAL MISCHIEF,43.070931,-76.156029,49
-8477395.8926505,5319260.07581403,2023/01/08 05:00:00+00,152,152,400 S  CLINTON ST     ,False,SIMPLE ASSAULT,43.0478640000001,-76.153742999,50
-8472952.5752868,5319142.17397738,2023/01/08 05:00:00+00,1021,1021,400 ELLIS ST     ,False,POSSESSION/USE DANGEROUS WEAPONS,43.04709,-76.113828,51
-8478127.76275404,5323258.65146365,2023/01/08 05:00:00+00,530,530,1500 FIRST NORTH ST     ,False,CRIMINAL MISCHIEF,43.0741080000001,-76.1603175,52
-8475991.7643647,5318284.00310549,2023/01/08 05:00:00+00,1645,1645,100 FRISBIE CT     ,False,SIMPLE ASSAULT,43.041456,-76.1411295,53
-8473408.4286016,5317366.97150019,2023/01/08 05:00:00+00,2000,2000,200 ROOSEVELT AVE    ,True,SIMPLE ASSAULT,43.0354350000001,-76.117923,54
-8479620.05618786,5322321.931704,2023/01/08 05:00:00+00,1205,1205,1 DESTINY USA DR,False,OFFN AGAINST FAMILY,43.067961,-76.1737229999999,55
-8476281.80740928,5320496.76379018,2023/01/08 05:00:00+00,2254,2254,500 CATHERINE ST     ,False,SIMPLE ASSAULT,43.055982,-76.143735001,56
-8479620.05618786,5322321.931704,2023/01/08 05:00:00+00,1434,1434,1 DESTINY USA DR,False,SIMPLE ASSAULT,43.067961,-76.1737229999999,57
-8473863.78097869,5319094.1910977,2023/01/08 05:00:00+00,2327,2327,300 COLUMBUS AVE    ,True,CRIMINAL MISCHIEF,43.046775,-76.1220135,58
-8479620.05618786,5322321.931704,2023/01/08 05:00:00+00,2015,2015,1 DESTINY USA DR,False,SIMPLE ASSAULT,43.067961,-76.1737229999999,59
-8476644.98713667,5322603.0749127,2023/01/09 05:00:00+00,1344,1344,400 GRIFFITHS ST     ,True,CRIMINAL MISCHIEF,43.069806,-76.1469974999999,60
-8475991.7643647,5318284.00310549,2023/01/09 05:00:00+00,1454,1454,100 FRISBIE CT     ,False,SIMPLE ASSAULT,43.041456,-76.1411295,61
-8476769.7206261,5319449.27024237,2023/01/09 05:00:00+00,1228,1228,300 E  WASHINGTON ST     ,False,OFFN AGAINST FAMILY,43.0491060000001,-76.148118,62
-8478888.18619564,5317945.41743032,2023/01/09 05:00:00+00,1931,1931,200 SABINE ST     ,False,POSSESSION/USE DANGEROUS WEAPONS,43.0392330000001,-76.1671484999999,63
-8477231.08414438,5318644.53494196,2023/01/09 05:00:00+00,1531,1531,500 S  SALINA ST     ,False,ALL OTHER OFFENSES,43.043823,-76.152262499,64
-8478163.83026905,5314458.83561301,2023/01/10 05:00:00+00,858,858,300 VALLEY DR     ,False,OFFN AGAINST FAMILY,43.0163370000001,-76.1606414999999,65
-8482040.58719568,5316617.238226,2023/01/10 05:00:00+00,1125,1125,100 INVERNESS PL     ,False,SIMPLE ASSAULT,43.030512,-76.195467,66
-8476738.16143914,5315782.59678606,2023/01/10 05:00:00+00,1202,1202,300 W  COLVIN ST     ,False,OFFN AGAINST FAMILY,43.0250310000001,-76.1478344989999,67
-8476769.7206261,5319449.27024237,2023/01/10 05:00:00+00,1230,1500,300 E  WASHINGTON ST     ,False,ALL OTHER OFFENSES,43.0491060000001,-76.148118,68
-8476769.7206261,5319449.27024237,2023/01/10 05:00:00+00,1530,1530,300 E  WASHINGTON ST     ,False,SIMPLE ASSAULT,43.0491060000001,-76.148118,69
-8476222.19571064,5322105.25149323,2023/01/11 05:00:00+00,106,106,1200 BUTTERNUT ST     ,False,CRIMINAL MISCHIEF,43.066539,-76.1431995,70
-8477231.08414438,5318644.53494196,2023/01/11 05:00:00+00,1553,1553,500 S  SALINA ST     ,False,ALL OTHER OFFENSES,43.043823,-76.152262499,71
-8476769.7206261,5319449.27024237,2023/01/11 05:00:00+00,1753,1753,300 E  WASHINGTON ST     ,False,POSSESSION/USE DRUG,43.0491060000001,-76.148118,72
-8480678.03662837,5319990.82619624,2023/01/11 05:00:00+00,1948,1948,1800 W  FAYETTE ST     ,False,OFFN AGAINST FAMILY,43.0526610000001,-76.183227,73
-8479620.05618786,5322321.931704,2023/01/11 05:00:00+00,930,1005,1 DESTINY USA DR,False,OFFN AGAINST FAMILY,43.067961,-76.1737229999999,74
-8473442.99330349,5322782.73671214,2023/01/11 05:00:00+00,2335,2335,100 VILLAGE DR     ,False,CRIMINAL MISCHIEF,43.0709850000001,-76.1182335,75
-8473390.39484409,5322934.97193411,2023/01/12 05:00:00+00,402,402,200 VILLAGE DR     ,False,POSSESSION/USE DANGEROUS WEAPONS,43.071984,-76.117761,76
-8476473.16550263,5316681.65535956,2023/01/12 05:00:00+00,1211,1211,200 W  KENNEDY ST     ,True,CRIMINAL MISCHIEF,43.0309350000001,-76.145454,77
-8479620.05618786,5322321.931704,2023/01/12 05:00:00+00,1155,1155,1 DESTINY USA DR,False,SIMPLE ASSAULT,43.067961,-76.1737229999999,78
-8479620.05618786,5322321.931704,2023/01/12 05:00:00+00,1624,1624,1 DESTINY USA DR,False,ALL OTHER OFFENSES,43.067961,-76.1737229999999,79
-8473490.58238581,5320773.73852276,2023/01/13 05:00:00+00,1300,1410,600 ROBINSON ST     ,False,SIMPLE ASSAULT,43.0578,-76.118661,80
-8479620.05618786,5322321.931704,2023/01/12 05:00:00+00,1843,1843,1 DESTINY USA DR,False,CRIMINAL MISCHIEF,43.067961,-76.1737229999999,81
-8478402.27661834,5314989.1397893,2023/01/13 05:00:00+00,2343,2343,200 GLENWOOD AVE    ,False,SIMPLE ASSAULT,43.01982,-76.1627835,82
-8477665.39724903,5319413.6246224,2023/01/13 05:00:00+00,2225,2225,300 W  FAYETTE ST     ,True,SIMPLE ASSAULT,43.0488720000001,-76.156164,83
-8472735.16820996,5329331.0936062,2023/01/13 05:00:00+00,1529,1529,1000 COL EILEEN COLLINS BLVD   ,False,POSSESSION/USE DRUG,43.1139420000001,-76.111874999,84
-8473863.78097869,5319094.1910977,2023/01/14 05:00:00+00,46,46,300 COLUMBUS AVE    ,False,SIMPLE ASSAULT,43.046775,-76.1220135,85
-8478208.41372512,5318714.44956993,2023/01/14 05:00:00+00,1206,1206,400 FABIUS ST     ,True,POSSESSION/USE DANGEROUS WEAPONS,43.0442820000001,-76.161042,86
-8478420.31037584,5317664.41434322,2023/01/14 05:00:00+00,307,1506,700 W  ONONDAGA ST     ,True,CRIMINAL MISCHIEF,43.0373880000001,-76.1629455,87
-8479925.62819009,5319783.79730256,2023/01/14 05:00:00+00,1943,1943,300 APPLE ST     ,False,SIMPLE ASSAULT,43.0513020000001,-76.1764679999999,88
-8471794.9082423,5319405.39872941,2023/01/14 05:00:00+00,1817,1817,100 W  FAYETTE ST     ,True,CRIMINAL MISCHIEF,43.048818,-76.1034284999999,89
-8475322.01064834,5322561.9314755,2023/01/15 05:00:00+00,118,118,600 HELEN ST     ,False,SIMPLE ASSAULT,43.069536,-76.1351129999999,90
-8477735.02759052,5311625.57515846,2023/01/15 05:00:00+00,321,321,200 CHAFFEE AVE    ,True,CRIMINAL MISCHIEF,42.9977250000001,-76.1567894999999,91
-8478735.90113224,5315594.84699272,2023/01/15 05:00:00+00,1958,1958,500 SUMMIT AVE    ,False,ALL OTHER OFFENSES,43.0237980000001,-76.1657805,92
-8477395.8926505,5319260.07581403,2023/01/15 05:00:00+00,2347,2347,400 S  CLINTON ST     ,False,SIMPLE ASSAULT,43.0478640000001,-76.153742999,93
-8476769.7206261,5319449.27024237,2023/01/15 05:00:00+00,2240,2240,300 E  WASHINGTON ST     ,False,SIMPLE ASSAULT,43.0491060000001,-76.148118,94
-8479033.45813113,5319617.90328794,2023/01/16 05:00:00+00,511,511,200 RICHMOND AVE    ,False,OFFN AGAINST FAMILY,43.050213,-76.1684534999999,95
-8471255.39833017,5321422.33029821,2023/01/16 05:00:00+00,1021,1021,500 PLYMOUTH DR     ,False,SIMPLE ASSAULT,43.062057,-76.098582,96
-8476769.7206261,5319449.27024237,2023/01/16 05:00:00+00,1637,1637,300 E  WASHINGTON ST     ,False,SIMPLE ASSAULT,43.0491060000001,-76.148118,97
-8475444.74038693,5319048.95032253,2023/01/16 05:00:00+00,1733,1733,1000 E  GENESEE ST     ,False,CRIMINAL MISCHIEF,43.046478,-76.1362154999999,98
-8472898.47401428,5319247.73718003,2023/01/16 05:00:00+00,1805,1805,2100 E  FAYETTE ST     ,False,POSSESSION/USE DRUG,43.047783,-76.113342,99
-8478513.98561603,5317057.20238116,2023/01/16 05:00:00+00,1923,1923,700 BELLEVUE AVE    ,False,POSSESSION/USE DANGEROUS WEAPONS,43.033401,-76.163786999,100
-8476707.42635038,5319200.73520718,2023/01/23 05:00:00+00,1522,1522,500 S  STATE ST     ,False,OFFN AGAINST FAMILY,43.0474744430001,-76.147558401,101
-8477085.23924747,5318475.64087567,2023/01/24 05:00:00+00,112,112,700 S  WARREN ST     ,False,FRAUD,43.0427141710001,-76.1509523519999,102
-8478239.71721121,5317062.61518095,2023/01/24 05:00:00+00,133,133,500 BELLEVUE AVE    ,False,OFFN AGAINST FAMILY,43.0334365420001,-76.161323204,103
-8476306.20151721,5310659.85861371,2023/01/24 05:00:00+00,1011,1011,100 SEARLWYN RD     ,False,SIMPLE ASSAULT,42.991379813,-76.143954137,104
-8476708.10528795,5320961.592396,2023/03/08 05:00:00+00,1156,1156,500 BUTTERNUT ST     ,False,ALL OTHER OFFENSES,43.0590330000001,-76.1475645,105
-8477887.60943169,5315486.17173505,2023/01/24 05:00:00+00,1222,1222,100 BISHOP AVE    ,False,SIMPLE ASSAULT,43.023084291,-76.158160166,106
-8480678.03662837,5319990.82619624,2023/03/08 05:00:00+00,1616,1616,1800 W  FAYETTE ST     ,False,CRIMINAL MISCHIEF,43.0526610000001,-76.183227,107
-8477528.64125459,5321606.08330035,2023/03/08 05:00:00+00,1518,1518,900 N  SALINA ST     ,False,POSSESSION/USE DANGEROUS WEAPONS,43.0632630000001,-76.1549355,108
-8471255.39833017,5321422.33029821,2023/03/08 05:00:00+00,1723,1723,500 PLYMOUTH DR     ,False,OFFN AGAINST FAMILY,43.062057,-76.098582,109
-8479532.39208886,5316079.98921237,2023/03/08 05:00:00+00,1819,1819,100 ALANSON RD     ,False,SIMPLE ASSAULT,43.026984,-76.1729354999999,110
-8482124.24379301,5320105.99657328,2023/03/08 05:00:00+00,1334,1400,100 DRISCOLL AVE    ,False,ALL OTHER OFFENSES,43.053417,-76.1962185,111
-8479463.76351148,5318310.04866556,2023/03/08 05:00:00+00,2333,2333,600 S  GEDDES ST     ,True,CRIMINAL MISCHIEF,43.0416270000001,-76.172318999,112
-8477463.37608429,5321120.25019902,2023/01/24 05:00:00+00,1157,1157,1000 N  STATE ST     ,False,POSSESSION/USE DRUG,43.060074349,-76.154349213,113
-8476105.47722454,5323146.18527064,2023/03/09 05:00:00+00,143,143,1600 BUTTERNUT ST     ,False,POSSESSION/USE DANGEROUS WEAPONS,43.0733700000001,-76.142151,114
-8477234.08988195,5322785.47966716,2023/03/09 05:00:00+00,1821,1821,1000 FIRST NORTH ST     ,True,CRIMINAL MISCHIEF,43.0710030000001,-76.1522894999999,115
-8475285.94313332,5321799.43924285,2023/03/09 05:00:00+00,2127,2127,200 HELEN ST     ,False,CRIMINAL MISCHIEF,43.064532,-76.134789,116
-8476839.83364891,5316996.86180036,2023/01/24 05:00:00+00,739,739,100 MARTIN LUTHER KING      E ,False,SIMPLE ASSAULT,43.0330047850001,-76.148747836,117
-8477873.78733579,5318379.960791,2023/03/10 05:00:00+00,216,216,100 SHONNARD ST     ,False,SIMPLE ASSAULT,43.042086,-76.158036,118
-8477617.80816672,5315646.92319982,2023/03/10 05:00:00+00,400,400,100 ROCKLAND AVE    ,False,SIMPLE ASSAULT,43.02414,-76.1557365,119
-8479122.98293542,5317502.05369699,2023/01/24 05:00:00+00,1659,1659,200 FITCH ST     ,False,SIMPLE ASSAULT,43.036321953,-76.169257715,120
-8478402.27661834,5314989.1397893,2023/03/10 05:00:00+00,1637,1637,200 GLENWOOD AVE    ,True,SIMPLE ASSAULT,43.01982,-76.1627835,121
-8474101.72639026,5316836.53241242,2023/03/10 05:00:00+00,1800,1800,1000 ACKERMAN AVE    ,False,OFFN AGAINST FAMILY,43.031952,-76.124151,122
-8477092.82544813,5318776.13938196,2023/03/11 05:00:00+00,450,450,100 ONONDAGA AVE    ,False,OFFN AGAINST FAMILY,43.0446870000001,-76.1510205,123
-8477395.8926505,5319260.07581403,2023/03/11 05:00:00+00,109,109,400 S  CLINTON ST     ,False,SIMPLE ASSAULT,43.0478640000001,-76.153742999,124
-8476833.8406528,5322737.47807061,2023/03/11 05:00:00+00,726,726,700 FIRST NORTH ST     ,False,OFFN AGAINST FAMILY,43.0706880000001,-76.148694,125
-8476707.42635038,5319200.73520718,2023/01/24 05:00:00+00,1659,1659,500 S  STATE ST     ,False,OFFN AGAINST FAMILY,43.0474744430001,-76.147558401,126
-8474120.76202319,5321401.76115726,2023/03/11 05:00:00+00,1431,1431,400 SHUART AVE    ,False,SIMPLE ASSAULT,43.061922,-76.1243219999999,127
-8479620.05618786,5322321.931704,2023/03/11 05:00:00+00,747,747,1 DESTINY USA DR,False,SIMPLE ASSAULT,43.067961,-76.1737229999999,128
-8477291.19678073,5319070.88521648,2023/03/11 05:00:00+00,1802,1802,400 S  SALINA ST     ,False,DRIVING UNDER INFLUENCE,43.0466220000001,-76.1528025,129
-8479620.05618786,5322321.931704,2023/03/11 05:00:00+00,1638,1638,1 DESTINY USA DR,False,OFFN AGAINST FAMILY,43.067961,-76.1737229999999,130
-8476211.17508105,5322419.30229642,2023/03/11 05:00:00+00,1945,1945,1300 BUTTERNUT ST     ,False,SIMPLE ASSAULT,43.0686000000001,-76.1431004999999,131
-8479620.05618786,5322321.931704,2023/03/11 05:00:00+00,1713,1713,1 DESTINY USA DR,False,OFFN AGAINST FAMILY,43.067961,-76.1737229999999,132
-8481620.30045818,5320430.9492196,2023/03/12 05:00:00+00,856,856,900 MILTON AVE    ,False,SIMPLE ASSAULT,43.05555,-76.1916914999999,133
-8476707.42635038,5319200.73520718,2023/01/24 05:00:00+00,1659,1659,500 S  STATE ST     ,False,OFFN AGAINST FAMILY,43.0474744430001,-76.147558401,134
-8473035.73105774,5319294.34988286,2023/03/12 05:00:00+00,1215,1215,2000 E  FAYETTE ST     ,False,SIMPLE ASSAULT,43.0480890000001,-76.1145750009999,135
-8474434.94325219,5317756.54495772,2023/01/24 05:00:00+00,1515,1515,700 LIVINGSTON AVE    ,False,SIMPLE ASSAULT,43.037992914,-76.1271443379999,136
-8470979.88259046,5319966.14701444,2023/01/16 05:00:00+00,1200,1200,300 AUDUBON PKWY   ,True,CRIMINAL MISCHIEF,43.0524990000001,-76.096107,137
-8476833.8406528,5322737.47807061,2023/03/12 05:00:00+00,1332,1332,700 FIRST NORTH ST     ,False,OFFN AGAINST FAMILY,43.0706880000001,-76.148694,138
-8477395.8926505,5319260.07581403,2023/03/12 05:00:00+00,1435,1435,400 S  CLINTON ST     ,True,CRIMINAL MISCHIEF,43.0478640000001,-76.153742999,139
-8477816.68043702,5314646.56259254,2023/03/12 05:00:00+00,2235,2235,100 BERTRAM PL     ,False,SIMPLE ASSAULT,43.01757,-76.157523,140
-8471923.24091351,5321389.7081188,2023/01/24 05:00:00+00,1936,1936,400 S  MIDLER AVE    ,False,POSSESSION/USE DRUG,43.0618428930001,-76.104581332,141
-8480831.32356719,5320197.85967756,2023/03/13 04:00:00+00,22,22,1900 E  FAYETTE ST     ,False,SIMPLE ASSAULT,43.05402,-76.184604,142
-8477276.16864947,5323039.20649022,2023/03/13 04:00:00+00,238,238,1000 DANFORTH ST     ,False,SIMPLE ASSAULT,43.0726680000001,-76.1526674999999,143
-8480056.56707322,5319645.21070265,2023/01/25 05:00:00+00,103,103,200 LAKEVIEW AVE    ,False,SIMPLE ASSAULT,43.050392259,-76.177644244,144
-8478127.76275404,5323258.65146365,2023/03/13 04:00:00+00,1029,1029,1500 FIRST NORTH ST     ,False,SIMPLE ASSAULT,43.0741080000001,-76.1603175,145
-8475373.10629461,5314697.26322621,2023/03/13 04:00:00+00,1420,1420,200 THURBER ST     ,False,SIMPLE ASSAULT,43.017903,-76.135572,146
-8472260.59674543,5322441.73333336,2023/01/25 05:00:00+00,44,44,100 S  COLLINGWOOD AVE    ,False,SIMPLE ASSAULT,43.068747204,-76.1076118509999,147
-8476455.13174513,5322956.91595451,2023/03/13 04:00:00+00,1611,1611,300 WARHAM ST     ,True,CRIMINAL MISCHIEF,43.0721280000001,-76.145292,148
-8478735.90113224,5315594.84699272,2023/03/13 04:00:00+00,1703,1703,500 SUMMIT AVE    ,False,ALL OTHER OFFENSES,43.0237980000001,-76.1657805,149
-8478579.10774078,5318288.11555752,2023/03/13 04:00:00+00,1933,1933,300 SHONNARD ST     ,False,SIMPLE ASSAULT,43.041483,-76.1643720009999,150
-8474917.32778651,5312871.07526283,2023/01/25 05:00:00+00,144,144,800 E  BRIGHTON AVE    ,False,SIMPLE ASSAULT,43.005907522,-76.131477672,151
-8476545.80147037,5314791.81379106,2023/03/14 04:00:00+00,106,106,200 W  CORNING AVE    ,False,SIMPLE ASSAULT,43.0185240000001,-76.1461065,152
-8473933.57752018,5321882.58642376,2023/01/25 05:00:00+00,1448,1448,1300 TEALL AVE    ,False,SIMPLE ASSAULT,43.0650776890001,-76.1226404929999,153
-8481445.9741356,5320518.70208342,2023/03/14 04:00:00+00,1434,1434,100 LEWIS ST     ,False,OFFN AGAINST FAMILY,43.0561260000001,-76.1901255,154
-8475495.16833891,5318871.72451361,2023/01/25 05:00:00+00,1140,1140,500 S  CROUSE AVE    ,False,OFFN AGAINST FAMILY,43.0453145210001,-76.136668502,155
-8476656.69583203,5321746.72961993,2023/01/25 05:00:00+00,1538,1538,200 JOHN ST     ,False,OFFN AGAINST FAMILY,43.064186068,-76.147102681,156
-8472480.69196533,5319313.54341631,2023/03/14 04:00:00+00,2038,2038,200 GENESEE PARK DR     ,False,OFFN AGAINST FAMILY,43.048215,-76.109589,157
-8470979.88259046,5319966.14701444,2023/03/14 04:00:00+00,1434,1434,300 AUDUBON PKWY   ,False,OFFN AGAINST FAMILY,43.0524990000001,-76.096107,158
-8476711.1109142,5320824.47240816,2023/03/15 04:00:00+00,210,210,800 N  MCBRIDE ST     ,False,OFFN AGAINST FAMILY,43.0581330000001,-76.1475915,159
-8476769.7206261,5319449.27024237,2023/03/14 04:00:00+00,800,1200,300 E  WASHINGTON ST     ,False,OFFN AGAINST FAMILY,43.0491060000001,-76.148118,160
-8481445.9741356,5320518.70208342,2023/03/15 04:00:00+00,1102,1102,100 LEWIS ST     ,False,OFFN AGAINST FAMILY,43.0561260000001,-76.1901255,161
-8475789.38553043,5315897.71531256,2023/03/15 04:00:00+00,1322,1322,100 BERWYN AVE    ,False,SIMPLE ASSAULT,43.025787,-76.1393115,162
-8475260.89624789,5314199.86078433,2023/03/15 04:00:00+00,1847,1850,1400 IVY RIDGE RD     ,False,SIMPLE ASSAULT,43.0146360000001,-76.134564,163
-8477231.08414438,5318644.53494196,2023/03/15 04:00:00+00,2143,2245,500 S  SALINA ST     ,False,OFFN AGAINST FAMILY,43.043823,-76.152262499,164
-8472602.92076622,5321261.89219991,2023/03/15 04:00:00+00,2100,2100,400 SUNNYCREST RD     ,False,SIMPLE ASSAULT,43.061004,-76.110687,165
-8476707.42635038,5319200.73520718,2023/01/25 05:00:00+00,1648,1648,500 S  STATE ST     ,False,OFFN AGAINST FAMILY,43.0474744430001,-76.147558401,166
-8469837.74461491,5318558.17053548,2023/03/16 04:00:00+00,712,712,100 GIFFORD ST     ,False,SIMPLE ASSAULT,43.043256,-76.0858469999999,167
-8473286.19980071,5322681.24794269,2023/03/16 04:00:00+00,530,723,100 EDTIM RD     ,False,SIMPLE ASSAULT,43.070319,-76.1168249999999,168
-8476769.7206261,5319449.27024237,2023/03/16 04:00:00+00,1800,800,300 E  WASHINGTON ST     ,False,OFFN AGAINST FAMILY,43.0491060000001,-76.148118,169
-8473286.19980071,5322681.24794269,2023/03/16 04:00:00+00,1058,1100,100 EDTIM RD     ,True,CRIMINAL MISCHIEF,43.070319,-76.1168249999999,170
-8477318.74846601,5317351.89400448,2023/03/16 04:00:00+00,1505,2328,200 CORTLAND AVE    ,True,CRIMINAL MISCHIEF,43.035336,-76.1530500009999,171
-8477231.08414438,5318644.53494196,2023/03/16 04:00:00+00,1545,1402,500 S  SALINA ST     ,False,SIMPLE ASSAULT,43.043823,-76.152262499,172
-8476428.08110886,5318452.61512264,2023/03/16 04:00:00+00,1637,1637,100 WEISER CT     ,False,SIMPLE ASSAULT,43.042563,-76.145049,173
-8476388.50702988,5321375.70697708,2023/03/16 04:00:00+00,1957,1957,800 BUTTERNUT ST     ,False,ALL OTHER OFFENSES,43.0617510000001,-76.1446935,174
-8479620.05618786,5322321.931704,2023/03/16 04:00:00+00,1611,1611,1 DESTINY USA DR,False,OFFN AGAINST FAMILY,43.067961,-76.1737229999999,175
-8476707.42635038,5319200.73520718,2023/01/25 05:00:00+00,1648,1648,500 S  STATE ST     ,False,OFFN AGAINST FAMILY,43.0474744430001,-76.147558401,176
-8476022.82250263,5321743.21476176,2023/03/16 04:00:00+00,2242,2242,900 HIGHLAND ST     ,False,POSSESSION/USE DANGEROUS WEAPONS,43.0641630000001,-76.1414085,177
-8477298.71084635,5322574.27448763,2023/03/16 04:00:00+00,2138,2138,700 KIRKPATRICK ST     ,True,CRIMINAL MISCHIEF,43.0696170000001,-76.15287,178
-8476388.50702988,5321375.70697708,2023/03/16 04:00:00+00,2254,2336,800 BUTTERNUT ST     ,False,FRAUD,43.0617510000001,-76.1446935,179
-8477567.71439586,5312688.6322306,2023/03/16 04:00:00+00,2200,900,100 SMITH LN     ,True,CRIMINAL MISCHIEF,43.004709,-76.1552865,180
-8478042.10240587,5317965.97896355,2023/03/17 04:00:00+00,358,358,600 W  ONONDAGA ST     ,False,OFFN AGAINST FAMILY,43.039368,-76.159548,181
-8477395.8926505,5319260.07581403,2023/03/17 04:00:00+00,947,947,400 S  CLINTON ST     ,True,SIMPLE ASSAULT,43.0478640000001,-76.153742999,182
-8476574.85596879,5315089.17469879,2023/03/17 04:00:00+00,1008,1008,200 W  BRIGHTON AVE    ,False,OFFN AGAINST FAMILY,43.020477,-76.146367501,183
-8478163.83026905,5314458.83561301,2023/03/17 04:00:00+00,945,945,300 VALLEY DR     ,False,SIMPLE ASSAULT,43.0163370000001,-76.1606414999999,184
-8476738.66248818,5319966.14701444,2023/03/17 04:00:00+00,0,900,400 JAMES ST     ,False,OFFN AGAINST FAMILY,43.0524990000001,-76.147839,185
-8471214.32143807,5318238.76625264,2023/03/17 04:00:00+00,1255,1255,3100 E  GENESEE ST     ,False,OFFN AGAINST FAMILY,43.0411590000001,-76.098213,186
-8474959.83268504,5319083.22361694,2023/03/17 04:00:00+00,1336,1450,1200 W  GENESEE ST     ,False,DRIVING UNDER INFLUENCE,43.046703,-76.1318595,187
-8473286.19980071,5322681.24794269,2023/03/17 04:00:00+00,1400,1601,100 EDTIM RD     ,True,CRIMINAL MISCHIEF,43.070319,-76.1168249999999,188
-8473390.39484409,5322934.97193411,2023/03/17 04:00:00+00,1552,1552,200 VILLAGE DR     ,False,OFFN AGAINST FAMILY,43.071984,-76.117761,189
-8476707.42635038,5319200.73520718,2023/01/25 05:00:00+00,1648,1648,500 S  STATE ST     ,False,OFFN AGAINST FAMILY,43.0474744430001,-76.147558401,190
-8478420.31037584,5317664.41434322,2023/03/17 04:00:00+00,1805,1805,700 W  ONONDAGA ST     ,False,CRIMINAL MISCHIEF,43.0373880000001,-76.1629455,191
-8476513.05461577,5318475.52252604,2023/01/25 05:00:00+00,1857,1857,900 S  TOWNSEND ST     ,False,ALL OTHER OFFENSES,43.042713394,-76.14581233,192
-8475273.92062831,5318432.05251863,2023/03/18 04:00:00+00,757,757,700 UNIVERSITY AVE    ,False,POSSESSION/USE DRUG,43.042428,-76.1346809999999,193
-8475701.13622487,5320682.19898866,2023/01/25 05:00:00+00,2236,2236,900 JAMES ST     ,False,SIMPLE ASSAULT,43.057199161,-76.138518743,194
-8470979.88259046,5319966.14701444,2023/03/18 04:00:00+00,605,605,300 AUDUBON PKWY   ,False,SIMPLE ASSAULT,43.0524990000001,-76.096107,195
-8477085.78526958,5315662.11732539,2023/01/25 05:00:00+00,2201,2201,500 W  COLVIN ST     ,True,CRIMINAL MISCHIEF,43.024239784,-76.150957257,196
-8480678.03662837,5319990.82619624,2023/03/18 04:00:00+00,1706,1706,1800 E  FAYETTE ST     ,False,SIMPLE ASSAULT,43.0526610000001,-76.183227,197
-8479620.05618786,5322321.931704,2023/03/18 04:00:00+00,1530,1700,1 DESTINY USA DR,False,SIMPLE ASSAULT,43.067961,-76.1737229999999,198
-8477262.18313657,5315586.83580967,2023/01/25 05:00:00+00,2339,2339,100 HOPE AVE    ,False,OFFN AGAINST FAMILY,43.0237453880001,-76.152541866,199
-8475902.59756389,5318281.26147181,2023/03/18 04:00:00+00,2232,2232,300 RENWICK AVE    ,False,ALL OTHER OFFENSES,43.041438,-76.1403285009999,200
-8476518.92883397,5322522.90465469,2023/01/26 05:00:00+00,209,209,200 CLEVELAND AVE    ,False,SIMPLE ASSAULT,43.069279889,-76.1458650989999,201
-8476459.6401845,5313602.46472951,2023/01/16 05:00:00+00,1432,1630,200 BALLANTYNE RD     ,True,CRIMINAL MISCHIEF,43.0107120000001,-76.1453324999999,202
-8478724.37956494,5315023.39819943,2023/01/17 05:00:00+00,1356,1356,300 GLENWOOD AVE    ,False,SIMPLE ASSAULT,43.020045,-76.165677,203
-8477231.08414438,5318644.53494196,2023/01/17 05:00:00+00,817,817,500 S  SALINA ST     ,False,ALL OTHER OFFENSES,43.043823,-76.152262499,204
-8477119.37514669,5315011.06515733,2023/01/17 05:00:00+00,1504,1504,400 E  BRIGHTON AVE    ,False,SIMPLE ASSAULT,43.0199640000001,-76.151259,205
-8473442.99330349,5322782.73671214,2023/01/18 05:00:00+00,202,202,100 VILLAGE DR     ,False,CRIMINAL MISCHIEF,43.0709850000001,-76.1182335,206
-8472518.76323118,5321686.99061908,2023/01/18 05:00:00+00,2200,530,300 WOODBINE AVE    ,True,CRIMINAL MISCHIEF,43.063794,-76.109931,207
-8476211.17508105,5322419.30229642,2023/01/18 05:00:00+00,1055,1055,1300 BUTTERNUT ST     ,False,OFFN AGAINST FAMILY,43.0686000000001,-76.1431004999999,208
-8476020.31781408,5312996.88658519,2023/01/18 05:00:00+00,1242,1242,200 E  FLORENCE AVE    ,True,CRIMINAL MISCHIEF,43.0067340000001,-76.141386,209
-8471420.20694761,5319668.63089713,2023/01/18 05:00:00+00,1840,1840,300 MOUNTAINVIEW AVE    ,False,OFFN AGAINST FAMILY,43.0505460000001,-76.100062501,210
-8473618.32161281,5318651.38929412,2023/01/18 05:00:00+00,2320,2320,400 WESTCOTT ST     ,False,SIMPLE ASSAULT,43.043868,-76.119808501,211
-8476371.47514779,5324392.98988483,2023/01/19 05:00:00+00,1647,1647,1100 WADSWORTH ST     ,False,SIMPLE ASSAULT,43.081551,-76.1445404999999,212
-8471214.32143807,5318238.76625264,2023/01/19 05:00:00+00,1645,1725,3100 E  GENESEE ST     ,False,OFFN AGAINST FAMILY,43.0411590000001,-76.098213,213
-8478340.66128018,5319147.65775075,2023/01/19 05:00:00+00,2206,2206,300 MARCELLUS ST     ,True,CRIMINAL MISCHIEF,43.047126,-76.16223,214
-8477391.38432244,5314554.7540367,2023/01/19 05:00:00+00,2259,2259,500 W  NEWELL ST     ,False,POSSESSION/USE DANGEROUS WEAPONS,43.0169670000001,-76.1537025,215
-8474418.31902208,5314539.68107638,2023/01/20 05:00:00+00,1006,1006,300 GOODRICH AVE    ,False,SIMPLE ASSAULT,43.016868,-76.126995,216
-8478729.38894203,5315197.43286167,2023/01/20 05:00:00+00,1609,1609,700 SUMMIT AVE    ,False,SIMPLE ASSAULT,43.0211880000001,-76.165722,217
-8476388.50702988,5321375.70697708,2023/01/20 05:00:00+00,2207,2207,800 BUTTERNUT ST     ,False,ALL OTHER OFFENSES,43.0617510000001,-76.1446935,218
-8478055.12689761,5312009.13851803,2023/01/20 05:00:00+00,2300,1213,200 HOPPER RD     ,False,CRIMINAL MISCHIEF,43.0002450000001,-76.159665001,219
-8475373.10629461,5314697.26322621,2023/01/21 05:00:00+00,442,442,200 THURBER ST     ,False,SIMPLE ASSAULT,43.017903,-76.135572,220
-8479033.45813113,5319617.90328794,2023/01/21 05:00:00+00,1230,1230,200 RICHMOND AVE    ,False,OFFN AGAINST FAMILY,43.050213,-76.1684534999999,221
-8477298.71084635,5322574.27448763,2023/01/21 05:00:00+00,1541,1541,700 KIRKPATRICK ST     ,False,SIMPLE ASSAULT,43.0696170000001,-76.15287,222
-8480423.0593347,5316958.51703065,2023/01/21 05:00:00+00,2155,2155,1600 BELLEVUE AVE    ,False,SIMPLE ASSAULT,43.0327530000001,-76.1809365,223
-8478420.31037584,5317664.41434322,2023/01/21 05:00:00+00,1410,719,700 W  ONONDAGA ST     ,False,CRIMINAL MISCHIEF,43.0373880000001,-76.1629455,224
-8472898.47401428,5319247.73718003,2023/01/22 05:00:00+00,248,248,2100 E  FAYETTE ST     ,False,SIMPLE ASSAULT,43.047783,-76.113342,225
-8470979.88259046,5319966.14701444,2023/01/21 05:00:00+00,220,702,300 AUDUBON PKWY   ,False,CRIMINAL MISCHIEF,43.0524990000001,-76.096107,226
-8473390.39484409,5322934.97193411,2023/01/22 05:00:00+00,338,338,200 VILLAGE DR     ,False,SIMPLE ASSAULT,43.071984,-76.117761,227
-8476478.17487972,5313551.77003227,2023/01/22 05:00:00+00,2006,2006,100 SHELDON AVE    ,False,CRIMINAL MISCHIEF,43.0103790000001,-76.145499,228
-8480015.79697764,5317440.98865011,2023/01/22 05:00:00+00,1549,1549,400 ROWLAND ST     ,True,SIMPLE ASSAULT,43.035921,-76.1772779999999,229
-8481620.30045818,5320430.9492196,2023/01/22 05:00:00+00,2134,2134,900 MILTON AVE    ,False,SIMPLE ASSAULT,43.05555,-76.1916914999999,230
-8477443.98289316,5319085.96548592,2023/01/22 05:00:00+00,2022,2022,500 S  CLINTON ST     ,False,OFFN AGAINST FAMILY,43.046721,-76.1541750009999,231
-8477567.71439586,5312688.6322306,2023/01/23 05:00:00+00,604,604,100 SMITH LN     ,False,SIMPLE ASSAULT,43.004709,-76.1552865,232
-8480071.40117461,5318974.92043566,2023/01/23 05:00:00+00,1016,1016,100 COLERIDGE AVE    ,False,CRIMINAL MISCHIEF,43.0459920000001,-76.177777501,233
-8477231.08414438,5318644.53494196,2023/01/23 05:00:00+00,1217,1217,500 S  SALINA ST     ,False,LOITERING,43.043823,-76.152262499,234
-8476473.16550263,5316681.65535956,2023/01/23 05:00:00+00,1200,1205,200 W  KENNEDY ST     ,False,OFFN AGAINST FAMILY,43.0309350000001,-76.145454,235
-8473463.53174954,5316206.07549343,2023/01/23 05:00:00+00,2236,2236,1300 WESTCOTT ST     ,False,SIMPLE ASSAULT,43.027812,-76.118418,236
-8477298.71084635,5322574.27448763,2023/01/23 05:00:00+00,2320,2320,700 KIRKPATRICK ST     ,False,SIMPLE ASSAULT,43.0696170000001,-76.15287,237
-8475991.7643647,5318284.00310549,2023/01/24 05:00:00+00,1353,1353,100 FRISBIE CT     ,False,SIMPLE ASSAULT,43.041456,-76.1411295,238
-8476545.80147037,5314791.81379106,2023/01/24 05:00:00+00,1821,1821,200 W  CORNING AVE    ,False,POSSESSION/USE DANGEROUS WEAPONS,43.0185240000001,-76.1461065,239
-8475221.32228024,5314499.94338838,2023/01/24 05:00:00+00,1815,1815,600 IVY RIDGE RD     ,False,OFFN AGAINST FAMILY,43.0166070000001,-76.134208501,240
-8478399.77192979,5315122.06312202,2023/01/24 05:00:00+00,2325,2325,300 HILLVIEW AVE    ,False,SIMPLE ASSAULT,43.0206930000001,-76.162761,241
-8477709.98070509,5316681.65535956,2023/01/25 05:00:00+00,6,6,100 BALLARD AVE    ,False,SIMPLE ASSAULT,43.0309350000001,-76.1565644999999,242
-8479501.83488864,5317173.70726117,2023/01/24 05:00:00+00,2059,2059,1200 W  ONONDAGA ST     ,False,ALL OTHER OFFENSES,43.034166,-76.1726609999999,243
-8472480.69196533,5319313.54341631,2023/01/25 05:00:00+00,918,918,200 GENESEE PARK DR     ,False,SIMPLE ASSAULT,43.048215,-76.109589,244
-8477210.04487194,5321030.15314467,2023/01/25 05:00:00+00,1924,1924,600 N  SALINA ST     ,False,SIMPLE ASSAULT,43.0594830000001,-76.1520735,245
-8476278.80167171,5321571.80074955,2023/01/26 05:00:00+00,140,140,900 BUTTERNUT ST     ,False,ALL OTHER OFFENSES,43.0630380000001,-76.1437079999999,246
-8477884.80796538,5314853.47771811,2023/01/26 05:00:00+00,459,459,400 BISHOP AVE    ,False,SIMPLE ASSAULT,43.0189290000001,-76.158135,247
-8474162.339853,5321220.75466984,2023/01/26 05:00:00+00,852,852,300 BOYDEN ST     ,False,OFFN AGAINST FAMILY,43.060734,-76.1246955,248
-8476334.90658375,5320234.87939284,2023/01/26 05:00:00+00,2016,2016,600 JAMES ST     ,False,OFFN AGAINST FAMILY,43.054263,-76.1442119989999,249
-8471409.68725573,5319420.47953876,2023/01/26 05:00:00+00,1750,1750,200 FAYETTE BLVD   ,False,SIMPLE ASSAULT,43.0489170000001,-76.099968001,250
-8473600.7886817,5321758.29934541,2023/01/27 05:00:00+00,20,20,200 MELROSE AVE    ,False,SIMPLE ASSAULT,43.064262,-76.119651,251
-8475950.68747259,5314121.75867248,2023/01/27 05:00:00+00,815,815,100 W  OSTRANDER AVE    ,False,OFFN AGAINST FAMILY,43.014123,-76.1407604999999,252
-8476022.82250263,5321743.21476176,2023/01/27 05:00:00+00,919,919,900 HIGHLAND ST     ,False,OFFN AGAINST FAMILY,43.0641630000001,-76.1414085,253
-8479033.45813113,5319617.90328794,2023/01/27 05:00:00+00,1437,1437,200 RICHMOND AVE    ,False,OFFN AGAINST FAMILY,43.050213,-76.1684534999999,254
-8473661.40214443,5321404.50370677,2023/01/27 05:00:00+00,2011,2011,500 HIXSON AVE    ,False,SIMPLE ASSAULT,43.06194,-76.1201955,255
-8478280.04781744,5318991.37147095,2023/01/28 05:00:00+00,516,516,300 OTISCO ST     ,False,POSSESSION/USE DANGEROUS WEAPONS,43.0461000000001,-76.1616855,256
-8480657.49818231,5317155.88877369,2023/01/28 05:00:00+00,203,203,1700 W  ONONDAGA ST     ,False,CRIMINAL MISCHIEF,43.034049,-76.1830424999999,257
-8481383.35692203,5316680.28477763,2023/01/28 05:00:00+00,1323,1323,2200 BELLEVUE AVE    ,True,OFFN AGAINST FAMILY,43.0309260000001,-76.189563,258
-8476428.08110886,5318452.61512264,2023/01/29 05:00:00+00,15,15,100 WEISER CT     ,True,SIMPLE ASSAULT,43.042563,-76.145049,259
-8476381.99483967,5318133.21444758,2023/01/29 05:00:00+00,147,147,100 DABLON CT     ,False,CRIMINAL MISCHIEF,43.040466,-76.1446349999999,260
-8476881.42973512,5316284.19502089,2023/01/29 05:00:00+00,1702,1702,200 MCLENNAN AVE    ,True,OFFN AGAINST FAMILY,43.0283250000001,-76.1491215,261
-8477092.82544813,5318776.13938196,2023/01/30 05:00:00+00,146,146,100 E  ONONDAGA ST     ,False,SIMPLE ASSAULT,43.0446870000001,-76.1510205,262
-8471409.68725573,5319420.47953876,2023/01/30 05:00:00+00,745,745,200 W  FAYETTE ST     ,True,CRIMINAL MISCHIEF,43.0489170000001,-76.099968001,263
-8476769.7206261,5319449.27024237,2023/01/30 05:00:00+00,1124,1124,300 E  WASHINGTON ST     ,False,CRIMINAL MISCHIEF,43.0491060000001,-76.148118,264
-8477327.26429575,5316454.14151116,2023/01/30 05:00:00+00,1200,1200,300 W  KENNEDY ST     ,False,POSSESSION/USE DANGEROUS WEAPONS,43.0294410000001,-76.1531265,265
-8477443.98289316,5319085.96548592,2023/01/30 05:00:00+00,1420,1420,500 S  CLINTON ST     ,False,OFFN AGAINST FAMILY,43.046721,-76.1541750009999,266
-8476332.40200653,5318451.24428097,2023/01/30 05:00:00+00,1621,1621,900 N  MCBRIDE ST     ,True,CRIMINAL MISCHIEF,43.0425540000001,-76.1441895,267
-8476274.29323233,5319914.04673361,2023/01/30 05:00:00+00,1642,1642,300 BURNET AVE    ,True,CRIMINAL MISCHIEF,43.0521570000001,-76.1436674999999,268
-8472455.64507991,5320925.94100555,2023/01/30 05:00:00+00,2217,2217,500 WOODBINE AVE    ,False,SIMPLE ASSAULT,43.0587990000001,-76.109364,269
-8471409.68725573,5319420.47953876,2023/01/30 05:00:00+00,2020,2020,200 W  FAYETTE ST     ,True,CRIMINAL MISCHIEF,43.0489170000001,-76.099968001,270
-8475985.25217448,5319155.88341683,2023/01/30 05:00:00+00,130,1540,700 W  GENESEE ST     ,False,CRIMINAL MISCHIEF,43.04718,-76.141071,271
-8475795.39689426,5319106.52952894,2023/01/30 05:00:00+00,1740,1517,800 W  GENESEE ST     ,False,CRIMINAL MISCHIEF,43.046856,-76.139365501,272
-8477567.71439586,5312688.6322306,2023/01/31 05:00:00+00,844,844,100 SMITH LN     ,False,CRIMINAL MISCHIEF,43.004709,-76.1552865,273
-8477231.08414438,5318644.53494196,2023/01/31 05:00:00+00,842,842,500 S  SALINA ST     ,False,OFFN AGAINST FAMILY,43.043823,-76.152262499,274
-8474855.13681527,5312632.4625316,2023/01/31 05:00:00+00,1324,1324,900 E  BRIGHTON AVE    ,False,DRIVING UNDER INFLUENCE,43.0043400000001,-76.1309190009999,275
-8479559.94355152,5317872.76704184,2023/01/31 05:00:00+00,1200,1200,900 S  GEDDES ST     ,False,SIMPLE ASSAULT,43.038756,-76.1731829989999,276
-8474907.73505203,5318643.16407213,2023/02/01 05:00:00+00,158,158,300 COMSTOCK AVE    ,False,SIMPLE ASSAULT,43.0438140000001,-76.131391499,277
-8476022.82250263,5321743.21476176,2023/02/01 05:00:00+00,1856,1856,900 HIGHLAND ST     ,False,SIMPLE ASSAULT,43.0641630000001,-76.1414085,278
-8479217.30227018,5318101.68621758,2023/02/01 05:00:00+00,2304,2304,400 MERRIMAN AVE    ,False,POSSESSION/USE DANGEROUS WEAPONS,43.040259,-76.170105,279
-8476388.50702988,5321375.70697708,2023/02/01 05:00:00+00,2342,2342,800 BUTTERNUT ST     ,False,ALL OTHER OFFENSES,43.0617510000001,-76.1446935,280
-8475444.23956055,5320037.44260641,2023/02/01 05:00:00+00,1350,1350,500 HAWLEY AVE    ,False,CRIMINAL MISCHIEF,43.0529670000001,-76.1362110009999,281
-8476189.13382187,5318142.81001696,2023/02/02 05:00:00+00,848,848,100 STEWART CT     ,False,SIMPLE ASSAULT,43.040529,-76.1429024999999,282
-8477092.82544813,5318776.13938196,2023/02/02 05:00:00+00,811,811,100 ONONDAGA AVE    ,False,SIMPLE ASSAULT,43.0446870000001,-76.1510205,283
-8475950.68747259,5314121.75867248,2023/02/02 05:00:00+00,814,814,100 W  OSTRANDER AVE    ,False,OFFN AGAINST FAMILY,43.014123,-76.1407604999999,284
-8477039.72605103,5318647.27668222,2023/02/02 05:00:00+00,1352,1352,200 HARRISON ST     ,False,ALL OTHER OFFENSES,43.043841,-76.1505435,285
-8480274.78188429,5316977.7057672,2023/02/02 05:00:00+00,1606,1606,1500 BELLEVUE AVE    ,False,SIMPLE ASSAULT,43.032879,-76.179604501,286
-8476436.0961122,5320402.15549077,2023/02/02 05:00:00+00,1830,1459,500 N  MCBRIDE ST     ,False,CRIMINAL MISCHIEF,43.0553610000001,-76.145121,287
-8477567.71439586,5312688.6322306,2023/02/03 05:00:00+00,911,911,100 SMITH LN     ,False,OFFN AGAINST FAMILY,43.004709,-76.1552865,288
-8477567.71439586,5312688.6322306,2023/02/03 05:00:00+00,1433,1433,100 SMITH LN     ,False,OFFN AGAINST FAMILY,43.004709,-76.1552865,289
-8476328.89544256,5318090.71990164,2023/02/03 05:00:00+00,1618,1618,1100 S  MCBRIDE ST     ,False,SIMPLE ASSAULT,43.0401870000001,-76.1441579999999,290
-8479559.94355152,5317872.76704184,2023/02/03 05:00:00+00,2317,2317,900 S  GEDDES ST     ,False,CRIMINAL MISCHIEF,43.038756,-76.1731829989999,291
-8478036.09115337,5318770.65582662,2023/02/04 05:00:00+00,924,924,300 FABIUS ST     ,False,SIMPLE ASSAULT,43.044651,-76.1594939999999,292
-8472898.47401428,5319247.73718003,2023/02/04 05:00:00+00,1621,1621,2100 E  FAYETTE ST     ,False,SIMPLE ASSAULT,43.047783,-76.113342,293
-8479620.05618786,5322321.931704,2023/02/04 05:00:00+00,1457,1457,1 DESTINY USA DR,True,OFFN AGAINST FAMILY,43.067961,-76.1737229999999,294
-8479620.05618786,5322321.931704,2023/02/04 05:00:00+00,1746,1746,1 DESTINY USA DR,False,OFFN AGAINST FAMILY,43.067961,-76.1737229999999,295
-8479193.25726016,5313732.62804884,2023/02/05 05:00:00+00,1006,1006,200 MITCHELL AVE    ,False,CRIMINAL MISCHIEF,43.0115670000001,-76.169889,296
-8473286.19980071,5322681.24794269,2023/02/05 05:00:00+00,1438,1438,100 EDTIM RD     ,False,OFFN AGAINST FAMILY,43.070319,-76.1168249999999,297
-8480657.49818231,5317155.88877369,2023/02/05 05:00:00+00,2119,2119,1700 W  ONONDAGA ST     ,False,POSSESSION/USE DANGEROUS WEAPONS,43.034049,-76.1830424999999,298
-8476334.90658375,5320234.87939284,2023/02/05 05:00:00+00,900,900,600 JAMES ST     ,True,CRIMINAL MISCHIEF,43.054263,-76.1442119989999,299
-8475221.32228024,5314499.94338838,2023/02/05 05:00:00+00,2351,2351,600 IVY RIDGE RD     ,False,SIMPLE ASSAULT,43.0166070000001,-76.134208501,300
-8476513.05461577,5318475.52252604,2023/01/01 05:00:00+00,350,350,900 S  TOWNSEND ST     ,False,SIMPLE ASSAULT,43.042713394,-76.14581233,301
-8477035.36600053,5320374.27166741,2023/01/01 05:00:00+00,554,554,500 N  STATE ST     ,False,SIMPLE ASSAULT,43.0551779720001,-76.150504333,302
-8479989.89649436,5316824.2359639,2023/01/01 05:00:00+00,719,719,400 GRANT AVE    ,False,POSSESSION/USE DANGEROUS WEAPONS,43.031871256,-76.177045332,303
-8477759.24236276,5323039.92562126,2023/01/01 05:00:00+00,755,755,700 TURTLE ST     ,False,SIMPLE ASSAULT,43.072672719,-76.157007025,304
-8475473.84063767,5314868.0479738,2023/01/01 05:00:00+00,1240,1240,100 STEVENS PL     ,False,SIMPLE ASSAULT,43.019024695,-76.136476912,305
-8476893.06763128,5320467.80410322,2023/01/01 05:00:00+00,1600,1600,300 PROSPECT AVE    ,False,SIMPLE ASSAULT,43.0557919120001,-76.149226045,306
-8476158.6831544,5313327.15366085,2023/01/01 05:00:00+00,1658,1658,100 DAWES AVE    ,False,SIMPLE ASSAULT,43.0089035330001,-76.1426289569999,307
-8478145.57877062,5318442.90774012,2023/01/01 05:00:00+00,1732,1732,300 SEYMOUR ST     ,False,SIMPLE ASSAULT,43.042499268,-76.1604775439999,308
-8470971.02656836,5321434.39693919,2023/01/01 05:00:00+00,1937,1937,200 ERICKSON ST     ,False,SIMPLE ASSAULT,43.062136196,-76.0960274449999,309
-8476643.28294658,5317170.98590383,2023/01/01 05:00:00+00,1947,1947,100 ALBERT TER    ,False,SIMPLE ASSAULT,43.0341481310001,-76.1469821909999,310
-8475860.93145772,5320915.31859342,2023/01/01 05:00:00+00,2112,2112,100 HIGHLAND AVE    ,True,POSSESSION/USE DANGEROUS WEAPONS,43.058729279,-76.1399542079999,311
-8476591.49856663,5315222.96034958,2023/01/01 05:00:00+00,2230,2230,100 FOREST AVE    ,False,SIMPLE ASSAULT,43.021355654,-76.146517004,312
-8477369.95988456,5316625.29338914,2023/01/01 05:00:00+00,2256,2256,300 FURMAN ST     ,False,SIMPLE ASSAULT,43.0305648950001,-76.1535100409999,313
-8476315.48456087,5310014.84973251,2023/01/01 05:00:00+00,2357,2357,100 SPAULDING AVE    ,False,SIMPLE ASSAULT,42.987141453,-76.144037528,314
-8473415.68551921,5322957.98206948,2023/01/01 05:00:00+00,2300,1000,100 LEA LN     ,False,CRIMINAL MISCHIEF,43.072134996,-76.1179881899999,315
-8477534.4109438,5312316.7016386,2023/01/01 05:00:00+00,0,0,100 RIVERDALE DR     ,False,OFFN AGAINST FAMILY,43.002265606,-76.15498733,316
-8476028.381798,5314584.0446744,2023/01/02 05:00:00+00,20,20,3200 S  SALINA ST     ,False,POSSESSION/USE DRUG,43.017159382,-76.14145844,317
-8472854.79580832,5319656.86237193,2023/01/02 05:00:00+00,136,136,100 CROLY ST     ,False,SIMPLE ASSAULT,43.050468746,-76.112949632,318
-8477304.67233904,5321742.72535122,2023/01/02 05:00:00+00,151,151,200 LILAC ST     ,False,SIMPLE ASSAULT,43.064159788,-76.1529235529999,319
-8477499.06110554,5316987.00592236,2023/01/28 05:00:00+00,2243,2243,600 MIDLAND AVE    ,False,POSSESSION/USE DANGEROUS WEAPONS,43.0329400680001,-76.154669777,320
-8480784.80370858,5319384.19256302,2023/01/02 05:00:00+00,220,220,200 EMERSON AVE    ,False,SIMPLE ASSAULT,43.0486787890001,-76.184186105,321
-8478199.23821609,5315847.70527502,2023/01/02 05:00:00+00,801,801,100 PARKSIDE AVE    ,False,SIMPLE ASSAULT,43.025458578,-76.1609595749999,322
-8479796.48066022,5320122.57360737,2023/01/02 05:00:00+00,1052,1052,100 EUREKA ST     ,False,CRIMINAL MISCHIEF,43.0535258140001,-76.175307848,323
-8476085.68595492,5313880.53094578,2023/01/02 05:00:00+00,1245,1245,100 HALL AVE    ,False,SIMPLE ASSAULT,43.0125385110001,-76.141973212,324
-8474996.6863383,5315824.67959994,2023/01/02 05:00:00+00,1246,1246,100 LORRAINE AVE  N ,False,CRIMINAL MISCHIEF,43.0253073650001,-76.1321905619999,325
-8471398.25374215,5319094.44822435,2023/01/02 05:00:00+00,1309,1309,900 SALT SPRINGS RD     ,False,SIMPLE ASSAULT,43.0467766880001,-76.0998652919999,326
-8479620.05618786,5322321.931704,2023/02/23 05:00:00+00,1621,1621,1 DESTINY USA DR,False,OFFN AGAINST FAMILY,43.067961,-76.1737229999999,327
-8478162.80791085,5322339.2620714,2023/01/02 05:00:00+00,1319,1319,1400 N  SALINA ST     ,False,SIMPLE ASSAULT,43.0680747320001,-76.160632316,328
-8478839.09441153,5317831.64443076,2023/02/23 05:00:00+00,2102,2102,200 GRACE ST     ,False,OFFN AGAINST FAMILY,43.038486,-76.166707501,329
-8476087.32802872,5320102.48141832,2023/01/02 05:00:00+00,1533,1533,300 CATHERINE ST     ,True,CRIMINAL MISCHIEF,43.0533939260001,-76.141987963,330
-8477231.08414438,5318644.53494196,2023/02/23 05:00:00+00,1705,1705,500 S  SALINA ST     ,False,OFFN AGAINST FAMILY,43.043823,-76.152262499,331
-8477736.82473238,5313485.87449179,2023/01/02 05:00:00+00,1536,1536,100 VALLEY VIEW DR     ,True,CRIMINAL MISCHIEF,43.0099461470001,-76.156805644,332
-8477650.36911777,5322774.5078519,2023/02/24 05:00:00+00,155,155,600 COURT ST     ,False,SIMPLE ASSAULT,43.070931,-76.156029,333
-8475216.74749444,5319681.69550996,2023/01/02 05:00:00+00,1946,1946,1100 ERIE BLVD E ,False,FORGERY/COUNTERFEIT,43.0506317620001,-76.134167405,334
-8477375.90924343,5320103.91222059,2022/05/02 04:00:00+00,2000,803,200 HERALD PL     ,True,CRIMINAL MISCHIEF,43.0534033180001,-76.1535634849999,335
-8476116.2035254,5313612.55726969,2023/01/02 05:00:00+00,2354,2354,100 BALLANTYNE RD     ,False,SIMPLE ASSAULT,43.0107782950001,-76.142247356,336
-8477327.2732013,5315792.67919369,2023/01/03 05:00:00+00,28,28,100 KIRKWOOD PL     ,False,SIMPLE ASSAULT,43.025097213,-76.1531265799999,337
-8479620.05618786,5322321.931704,2023/02/24 05:00:00+00,1612,1612,1 DESTINY USA DR,False,POSSESSION/USE DANGEROUS WEAPONS,43.067961,-76.1737229999999,338
-8477066.77668729,5312305.04100156,2023/02/25 05:00:00+00,1522,1522,300 SENECA ST     ,False,POSSESSION/USE DANGEROUS WEAPONS,43.002189,-76.1507865,339
-8475373.10629461,5314697.26322621,2023/02/25 05:00:00+00,2033,2033,200 THURBER ST     ,False,SIMPLE ASSAULT,43.017903,-76.135572,340
-8476707.42635038,5319200.73520718,2023/01/03 05:00:00+00,1655,1655,500 S  STATE ST     ,False,OFFN AGAINST FAMILY,43.0474744430001,-76.147558401,341
-8481721.84353734,5320063.14068749,2012/05/12 04:00:00+00,1534,1534,800 WILLIS AVE    ,False,OFFN AGAINST FAMILY,43.0531356870001,-76.192603677,342
-8473619.32337691,5318334.72347364,2023/02/26 05:00:00+00,26,26,500 WESTCOTT ST     ,False,SIMPLE ASSAULT,43.0417890000001,-76.1198175,343
-8476707.42635038,5319200.73520718,2023/01/03 05:00:00+00,1655,1655,500 S  STATE ST     ,False,OFFN AGAINST FAMILY,43.0474744430001,-76.147558401,344
-8475701.13622487,5320682.19898866,2023/01/03 05:00:00+00,1754,1754,900 JAMES ST     ,False,SIMPLE ASSAULT,43.057199161,-76.138518743,345
-8475108.90952072,5320373.1010325,2023/01/03 05:00:00+00,2052,2052,200 OAK ST     ,False,SIMPLE ASSAULT,43.0551702880001,-76.13319868,346
-8477480.59698687,5313965.83988186,2020/03/19 04:00:00+00,1528,1528,1100 ONONDAGA CREEK BLVD   ,True,CRIMINAL MISCHIEF,43.013098862,-76.1545039109999,347
-8479683.61505301,5319632.37967037,2023/01/03 05:00:00+00,2239,2239,500 RICHMOND AVE    ,False,POSSESSION/USE DANGEROUS WEAPONS,43.0503080300001,-76.174293959,348
-8476797.59001722,5314625.23354236,2023/01/03 05:00:00+00,2124,2124,300 W  NEWELL ST     ,False,POSSESSION/USE DANGEROUS WEAPONS,43.0174299110001,-76.1483683549999,349
-8474782.77324633,5320411.34418462,2023/01/03 05:00:00+00,2251,2251,400 ELM ST     ,False,SIMPLE ASSAULT,43.0554213140001,-76.130268948,350
-8476359.73617353,5320892.90645718,2023/01/03 05:00:00+00,2328,2328,1200 LODI ST     ,True,POSSESSION/USE DANGEROUS WEAPONS,43.058582175,-76.1444350469999,351
-8477304.67233904,5321742.72535122,2023/01/03 05:00:00+00,1700,1900,200 LILAC ST     ,True,CRIMINAL MISCHIEF,43.064159788,-76.1529235529999,352
-8477311.2144742,5313230.78976774,2023/01/04 05:00:00+00,304,304,500 PACIFIC AVE    ,False,POSSESSION/USE DRUG,43.0082705240001,-76.152982322,353
-8473415.68551921,5322957.98206948,2023/01/04 05:00:00+00,419,419,100 LEA LN     ,False,SIMPLE ASSAULT,43.072134996,-76.1179881899999,354
-8473376.36858825,5318281.26147181,2023/02/27 05:00:00+00,721,721,200 HARVARD PL     ,False,OFFN AGAINST FAMILY,43.041438,-76.117635,355
-8477909.716592,5313927.52017905,2023/01/04 05:00:00+00,828,828,100 MAURICE AVE    ,True,CRIMINAL MISCHIEF,43.01284716,-76.158358758,356
-8477694.99743559,5323973.42802618,2023/01/04 05:00:00+00,1153,1153,100 STEDMAN ST     ,False,SIMPLE ASSAULT,43.078798136,-76.1564299029999,357
-8474488.08339224,5319122.63684231,2023/01/04 05:00:00+00,1200,800,1500 E  GENESEE ST     ,True,CRIMINAL MISCHIEF,43.0469617420001,-76.127621704,358
-8480056.56707322,5319645.21070265,2023/01/04 05:00:00+00,1400,1400,200 LAKEVIEW AVE    ,False,SIMPLE ASSAULT,43.050392259,-76.177644244,359
-8475358.87432035,5315635.76287876,2023/01/04 05:00:00+00,1407,1407,300 JAMESVILLE AVE    ,False,SIMPLE ASSAULT,43.024066707,-76.1354441519999,360
-8477160.9529765,5318109.91096297,2023/02/27 05:00:00+00,1406,1406,800 S  SALINA ST     ,False,OFFN AGAINST FAMILY,43.040313,-76.1516324999999,361
-8475701.13622487,5320682.19898866,2023/01/04 05:00:00+00,1552,1552,900 JAMES ST     ,True,SIMPLE ASSAULT,43.057199161,-76.138518743,362
-8476022.82250263,5321743.21476176,2023/02/27 05:00:00+00,1927,1927,900 HIGHLAND ST     ,False,OFFN AGAINST FAMILY,43.0641630000001,-76.1414085,363
-8479660.77663496,5317441.63196223,2023/01/04 05:00:00+00,1439,1439,1200 S  GEDDES ST     ,False,POSSESSION/USE DANGEROUS WEAPONS,43.035925224,-76.174088798,364
-8476039.35344701,5322120.33666158,2023/02/28 05:00:00+00,403,403,1000 HIGHLAND ST     ,True,CRIMINAL MISCHIEF,43.0666380000001,-76.141557,365
-8471945.18955487,5318360.76917508,2023/02/06 05:00:00+00,1440,1440,2900 E  GENESEE ST     ,False,CRIMINAL MISCHIEF,43.0419600000001,-76.1047785,366
-8475550.63494498,5315835.05822413,2023/01/04 05:00:00+00,1632,1632,200 MOORE AVE    ,False,SIMPLE ASSAULT,43.025375523,-76.1371667669999,367
-8476334.90658375,5320234.87939284,2023/02/28 05:00:00+00,1015,1015,600 JAMES ST     ,False,CRIMINAL MISCHIEF,43.054263,-76.1442119989999,368
-8476023.01931549,5321575.4377413,2023/01/04 05:00:00+00,1626,1626,800 HIGHLAND ST     ,False,SIMPLE ASSAULT,43.0630618700001,-76.141410268,369
-8478076.16617005,5318909.11658414,2023/02/28 05:00:00+00,1942,1942,300 TULLY ST     ,True,SIMPLE ASSAULT,43.0455600000001,-76.1598539999999,370
-8476707.42635038,5319200.73520718,2023/01/04 05:00:00+00,1602,1602,500 S  STATE ST     ,False,ALL OTHER OFFENSES,43.0474744430001,-76.147558401,371
-8479836.19177348,5317750.71718368,2023/01/04 05:00:00+00,1937,1937,400 FITCH ST     ,False,SIMPLE ASSAULT,43.0379546500001,-76.1756645789999,372
-8474244.28903198,5318990.02233264,2023/01/04 05:00:00+00,2146,2146,100 MAPLE TER    ,False,SIMPLE ASSAULT,43.0460911430001,-76.125431662,373
-8475843.80450879,5312629.88025577,2023/01/04 05:00:00+00,2218,2218,200 SENECA DR     ,False,SIMPLE ASSAULT,43.0043230360001,-76.139800354,374
-8472847.378368,5322357.58842287,2023/02/28 05:00:00+00,1155,1230,100 STAFFORD AVE    ,False,SIMPLE ASSAULT,43.0681950000001,-76.112883,375
-8476707.42635038,5319200.73520718,2023/01/04 05:00:00+00,1925,1925,500 S  STATE ST     ,False,CRIMINAL MISCHIEF,43.0474744430001,-76.147558401,376
-8472948.1906347,5319304.26379495,2023/01/04 05:00:00+00,2000,2200,300 ELLIS ST     ,False,CRIMINAL MISCHIEF,43.0481540820001,-76.113788612,377
-8479292.32292405,5319618.70685378,2023/01/05 05:00:00+00,37,37,300 RICHMOND AVE    ,False,SIMPLE ASSAULT,43.0502182750001,-76.170778922,378
-8476006.36246876,5314446.62465928,2023/01/05 05:00:00+00,2,2,100 W  CALTHROP AVE    ,False,POSSESSION/USE DRUG,43.016256797,-76.141260637,379
-8478161.20034608,5318106.92004871,2023/01/05 05:00:00+00,559,559,0 SLOCUM AVE    ,False,SIMPLE ASSAULT,43.040293363,-76.160617875,380
-8479719.56445805,5318740.58635116,2023/01/05 05:00:00+00,252,252,200 MAGNOLIA ST     ,False,SIMPLE ASSAULT,43.044453591,-76.174616898,381
-8475438.52497449,5321612.8164081,2023/01/05 05:00:00+00,1205,1205,300 PARK ST     ,False,POSSESSION/USE DRUG,43.06330719,-76.136159666,382
-8479629.14286394,5317552.53223169,2023/01/05 05:00:00+00,459,459,1100 S  GEDDES ST     ,False,SIMPLE ASSAULT,43.0366533930001,-76.173804627,383
-8478664.61268694,5322616.28641359,2023/01/05 05:00:00+00,1230,1230,200 WOLF ST     ,False,POSSESSION/USE DRUG,43.069892699,-76.165140105,384
-8474159.15656084,5320428.19659623,2023/01/05 05:00:00+00,1400,1400,1400 HAWLEY AVE    ,False,OFFN AGAINST FAMILY,43.0555319320001,-76.124666904,385
-8476476.56152633,5317402.92716128,2023/01/05 05:00:00+00,1851,1851,100 TRUTH TER    ,False,POSSESSION/USE DANGEROUS WEAPONS,43.035671087,-76.1454845069999,386
-8476517.61270364,5314663.53920473,2023/01/05 05:00:00+00,1815,1815,200 W  NEWELL ST     ,False,SIMPLE ASSAULT,43.0176815020001,-76.145853276,387
-8476775.57224646,5319925.88413564,2023/01/05 05:00:00+00,1942,1942,100 BURNET AVE    ,True,CRIMINAL MISCHIEF,43.0522347040001,-76.148170566,388
-8480333.57182244,5319360.43033775,2023/01/05 05:00:00+00,1950,1950,100 S  WILBUR AVE    ,False,ALL OTHER OFFENSES,43.0485227980001,-76.1801326199999,389
-8476266.08876322,5316012.07128817,2023/01/05 05:00:00+00,2050,2050,100 ELIZABETH ST     ,False,POSSESSION/USE DANGEROUS WEAPONS,43.026537983,-76.143593798,390
-8471801.64930538,5319173.80351246,2023/01/05 05:00:00+00,2258,2258,100 MILNOR AVE    ,False,SIMPLE ASSAULT,43.047297642,-76.1034890559999,391
-8477231.08414438,5318644.53494196,2023/03/01 05:00:00+00,1235,1235,500 S  SALINA ST     ,False,ALL OTHER OFFENSES,43.043823,-76.152262499,392
-8478007.09654484,5318741.82029918,2023/01/05 05:00:00+00,2144,2144,500 WYOMING ST     ,False,POSSESSION/USE DANGEROUS WEAPONS,43.044461692,-76.159233537,393
-8475634.45195371,5318461.85734246,2023/01/06 05:00:00+00,1548,1548,700 IRVING AVE    ,True,FRAUD,43.042623678,-76.137919708,394
-8477154.72843585,5314828.90588861,2023/01/06 05:00:00+00,1356,1356,500 W  LAFAYETTE AVE    ,False,SIMPLE ASSAULT,43.018767616,-76.1515765839999,395
-8475672.01103858,5320386.93826944,2023/01/06 05:00:00+00,1643,1643,700 LODI ST     ,False,SIMPLE ASSAULT,43.0552611150001,-76.138257107,396
-8478022.65823041,5315614.7869686,2023/01/06 05:00:00+00,1649,1649,1400 SOUTH AVE    ,False,POSSESSION/USE DANGEROUS WEAPONS,43.0239289520001,-76.1593733299999,397
-8477092.82544813,5318776.13938196,2023/03/01 05:00:00+00,1630,1630,100 ONONDAGA AVE    ,True,CRIMINAL MISCHIEF,43.0446870000001,-76.1510205,398
-8477360.96649422,5319958.27101767,2023/01/07 05:00:00+00,259,259,300 N  CLINTON ST     ,False,SIMPLE ASSAULT,43.0524473,-76.153429252,399
-8476411.61016568,5313859.62656836,2023/01/07 05:00:00+00,400,400,200 HALL AVE    ,False,SIMPLE ASSAULT,43.0124012000001,-76.1449010389999,400
-8477064.86622219,5316936.46693663,2023/01/06 05:00:00+00,1717,1717,200 MARTIN LUTHER KING      W ,False,SIMPLE ASSAULT,43.0326082110001,-76.150769338,401
-8475247.28421188,5320986.61381146,2023/01/07 05:00:00+00,807,807,1000 JAMES ST     ,True,CRIMINAL MISCHIEF,43.0591972290001,-76.134441721,402
-8478163.83026905,5314458.83561301,2023/02/06 05:00:00+00,1738,1738,300 VALLEY DR     ,False,SIMPLE ASSAULT,43.0163370000001,-76.1606414999999,403
-8471214.32143807,5318238.76625264,2023/02/06 05:00:00+00,1425,1435,3100 E  GENESEE ST     ,False,OFFN AGAINST FAMILY,43.0411590000001,-76.098213,404
-8477835.71606994,5318178.45078948,2023/02/06 05:00:00+00,1629,1629,400 W  ONONDAGA ST     ,False,SIMPLE ASSAULT,43.040763,-76.1576939999999,405
-8473442.99330349,5322782.73671214,2023/02/07 05:00:00+00,52,52,100 VILLAGE DR     ,False,OFFN AGAINST FAMILY,43.0709850000001,-76.1182335,406
-8478076.16617005,5318909.11658414,2023/02/07 05:00:00+00,1456,1456,300 TULLY ST     ,False,POSSESSION/USE DANGEROUS WEAPONS,43.0455600000001,-76.1598539999999,407
-8476082.43408995,5319948.32320146,2023/02/07 05:00:00+00,1542,1542,200 CATHERINE ST     ,False,OFFN AGAINST FAMILY,43.0523820000001,-76.141944,408
-8477231.08414438,5318644.53494196,2023/02/07 05:00:00+00,1205,1205,500 S  SALINA ST     ,False,ALL OTHER OFFENSES,43.043823,-76.152262499,409
-8479620.05618786,5322321.931704,2023/02/06 05:00:00+00,2037,2037,1 DESTINY USA DR,False,SIMPLE ASSAULT,43.067961,-76.1737229999999,410
-8477781.61479742,5323072.12290752,2023/02/07 05:00:00+00,1826,1826,1300 FIRST NORTH ST     ,False,KIDNAPPING,43.072884,-76.157208,411
-8476738.16143914,5315782.59678606,2023/02/08 05:00:00+00,55,55,300 W  COLVIN ST     ,False,OFFN AGAINST FAMILY,43.0250310000001,-76.1478344989999,412
-8478402.27661834,5314989.1397893,2023/02/08 05:00:00+00,931,931,200 GLENWOOD AVE    ,False,CRIMINAL MISCHIEF,43.01982,-76.1627835,413
-8475950.68747259,5314121.75867248,2023/02/08 05:00:00+00,1252,1252,100 E  OSTRANDER AVE    ,False,SIMPLE ASSAULT,43.014123,-76.1407604999999,414
-8476334.90658375,5320234.87939284,2023/02/08 05:00:00+00,2332,2332,600 JAMES ST     ,False,OFFN AGAINST FAMILY,43.054263,-76.1442119989999,415
-8472548.81938238,5322404.21664522,2023/02/09 05:00:00+00,632,632,100 WOODBINE AVE    ,False,OFFN AGAINST FAMILY,43.068501,-76.110200999,416
-8480071.40117461,5318974.92043566,2023/02/09 05:00:00+00,2130,830,100 COLERIDGE AVE    ,True,CRIMINAL MISCHIEF,43.0459920000001,-76.177777501,417
-8476594.89336581,5313591.5036906,2023/02/10 05:00:00+00,939,939,300 BALLANTYNE RD     ,False,POSSESSION/USE DRUG,43.0106400000001,-76.1465474999999,418
-8477873.78733579,5318379.960791,2023/02/10 05:00:00+00,1122,1122,100 SHONNARD ST     ,False,CRIMINAL MISCHIEF,43.042086,-76.158036,419
-8476769.7206261,5319449.27024237,2023/02/10 05:00:00+00,1346,1346,300 E  WASHINGTON ST     ,False,POSSESSION/USE DRUG,43.0491060000001,-76.148118,420
-8474691.33007325,5321031.52436477,2023/02/10 05:00:00+00,1820,1820,200 SEDGWICK ST     ,False,POSSESSION/USE DANGEROUS WEAPONS,43.059492,-76.1294475,421
-8478998.89342924,5321141.22262538,2023/02/10 05:00:00+00,1903,1903,100 IRON PIER DR     ,True,CRIMINAL MISCHIEF,43.060212,-76.168143,422
-8472730.65988191,5319295.72084822,2023/02/10 05:00:00+00,2252,2252,300 BRUCE ST     ,False,SIMPLE ASSAULT,43.048098,-76.1118345,423
-8473442.99330349,5322782.73671214,2023/02/11 05:00:00+00,233,233,100 VILLAGE DR     ,False,CRIMINAL MISCHIEF,43.0709850000001,-76.1182335,424
-8478137.2805705,5318055.0794637,2023/02/11 05:00:00+00,804,804,300 SLOCUM AVE    ,False,SIMPLE ASSAULT,43.039953,-76.160403,425
-8480179.10267063,5317802.85871067,2023/02/11 05:00:00+00,1138,1138,100 LYDELL ST     ,True,CRIMINAL MISCHIEF,43.0382970000001,-76.1787449999999,426
-8472735.16820996,5329331.0936062,2023/02/11 05:00:00+00,1749,1749,1000 COL EILEEN COLLINS BLVD   ,False,SIMPLE ASSAULT,43.1139420000001,-76.111874999,427
-8473290.20730238,5321766.52731041,2023/02/12 05:00:00+00,905,905,200 CLIFTON PL     ,True,CRIMINAL MISCHIEF,43.0643160000001,-76.116861,428
-8475745.80394979,5320068.9773687,2023/02/12 05:00:00+00,915,915,400 HAWLEY AVE    ,False,SIMPLE ASSAULT,43.0531740000001,-76.13892,429
-8478420.31037584,5317664.41434322,2023/02/12 05:00:00+00,1400,1400,700 W  ONONDAGA ST     ,False,SIMPLE ASSAULT,43.0373880000001,-76.1629455,430
-8477231.08414438,5318644.53494196,2023/02/12 05:00:00+00,1625,1625,500 S  SALINA ST     ,False,ALL OTHER OFFENSES,43.043823,-76.152262499,431
-8475444.74038693,5319048.95032253,2023/02/12 05:00:00+00,1713,1713,1000 E  GENESEE ST     ,True,CRIMINAL MISCHIEF,43.046478,-76.1362154999999,432
-8476451.12424346,5324318.91763302,2023/02/12 05:00:00+00,1820,1820,300 MALVERNE DR     ,True,CRIMINAL MISCHIEF,43.0810650000001,-76.145256,433
-8480678.03662837,5319990.82619624,2023/02/12 05:00:00+00,2357,2357,1800 E  FAYETTE ST     ,False,SIMPLE ASSAULT,43.0526610000001,-76.183227,434
-8478537.02875062,5318107.16938038,2023/02/13 05:00:00+00,336,336,100 GRACE ST     ,False,SIMPLE ASSAULT,43.0402950000001,-76.163993999,435
-8480274.78188429,5316977.7057672,2023/02/13 05:00:00+00,1417,1417,1500 BELLEVUE AVE    ,False,CRIMINAL MISCHIEF,43.032879,-76.179604501,436
-8472233.2287373,5321700.7037934,2023/02/13 05:00:00+00,1146,1146,300 S  COLLINGWOOD AVE    ,True,CRIMINAL MISCHIEF,43.063884,-76.107366,437
-8477231.08414438,5318644.53494196,2023/02/13 05:00:00+00,1311,1311,500 S  SALINA ST     ,False,CRIMINAL MISCHIEF,43.043823,-76.152262499,438
-8476235.22009106,5318448.50259822,2023/02/13 05:00:00+00,2215,2223,100 TYLER CT     ,False,POSSESSION/USE DANGEROUS WEAPONS,43.042536,-76.1433165,439
-8477231.08414438,5318644.53494196,2023/02/13 05:00:00+00,1933,1933,500 S  SALINA ST     ,False,OFFN AGAINST FAMILY,43.043823,-76.152262499,440
-8480685.04975628,5319079.11081497,2023/02/14 05:00:00+00,1403,1403,300 TENNYSON AVE    ,False,ALL OTHER OFFENSES,43.046676,-76.1832899999999,441
-8476334.90658375,5320234.87939284,2023/02/14 05:00:00+00,1227,1227,600 JAMES ST     ,False,OFFN AGAINST FAMILY,43.054263,-76.1442119989999,442
-8473266.66323007,5322855.42529236,2023/02/14 05:00:00+00,1414,1414,300 VILLAGE DR     ,False,SIMPLE ASSAULT,43.0714620000001,-76.1166494999999,443
-8478839.09441153,5317831.64443076,2023/02/14 05:00:00+00,1918,1918,200 GRACE ST     ,False,POSSESSION/USE DANGEROUS WEAPONS,43.038486,-76.166707501,444
-8480878.9126495,5318714.44956993,2023/02/14 05:00:00+00,1940,1945,400 WHITTIER AVE    ,False,CRIMINAL MISCHIEF,43.0442820000001,-76.1850315,445
-8479620.05618786,5322321.931704,2023/02/14 05:00:00+00,1845,2115,1 DESTINY USA DR,False,CRIMINAL MISCHIEF,43.067961,-76.1737229999999,446
-8479620.05618786,5322321.931704,2023/02/14 05:00:00+00,1815,1915,1 DESTINY USA DR,False,CRIMINAL MISCHIEF,43.067961,-76.1737229999999,447
-8479620.05618786,5322321.931704,2023/02/14 05:00:00+00,1815,2005,1 DESTINY USA DR,False,CRIMINAL MISCHIEF,43.067961,-76.1737229999999,448
-8476644.98713667,5322603.0749127,2023/02/15 05:00:00+00,949,949,400 GRIFFITHS ST     ,False,FRAUD,43.069806,-76.1469974999999,449
-8475149.18713889,5315849.74908756,2023/02/15 05:00:00+00,1106,1106,100 HUGHES PL     ,False,OFFN AGAINST FAMILY,43.025472,-76.1335605,450
-8480179.10267063,5317802.85871067,2023/02/15 05:00:00+00,1214,1214,100 LYDELL ST     ,True,CRIMINAL MISCHIEF,43.0382970000001,-76.1787449999999,451
-8477327.26429575,5316454.14151116,2023/02/15 05:00:00+00,1506,1506,300 W  KENNEDY ST     ,True,CRIMINAL MISCHIEF,43.0294410000001,-76.1531265,452
-8472210.1856027,5318480.03199836,2023/02/15 05:00:00+00,1651,1651,100 BRADFORD ST     ,False,SIMPLE ASSAULT,43.042743,-76.107159,453
-8477789.12886305,5317473.88534935,2023/02/15 05:00:00+00,2038,2038,200 LINCOLN AVE    ,False,OFFN AGAINST FAMILY,43.0361370000001,-76.1572755,454
-8477092.82544813,5318776.13938196,2023/02/15 05:00:00+00,2221,2221,100 ONONDAGA AVE    ,False,SIMPLE ASSAULT,43.0446870000001,-76.1510205,455
-8472735.16820996,5329331.0936062,2023/02/15 05:00:00+00,1323,1323,1000 COL EILEEN COLLINS BLVD WAY  N ,False,ALL OTHER OFFENSES,43.1139420000001,-76.111874999,456
-8471255.39833017,5321422.33029821,2023/02/16 05:00:00+00,311,311,500 PLYMOUTH DR     ,False,OFFN AGAINST FAMILY,43.062057,-76.098582,457
-8475305.47981527,5321994.17054933,2023/02/16 05:00:00+00,1224,1224,300 HELEN ST     ,False,SIMPLE ASSAULT,43.0658100000001,-76.134964501,458
-8472735.16820996,5329331.0936062,2023/02/16 05:00:00+00,550,613,1000 COL EILEEN COLLINS BLVD   ,False,POSSESSION/USE DANGEROUS WEAPONS,43.1139420000001,-76.111874999,459
-8478420.31037584,5317664.41434322,2023/02/16 05:00:00+00,1114,1114,700 W  ONONDAGA ST     ,True,SIMPLE ASSAULT,43.0373880000001,-76.1629455,460
-8473463.53174954,5316206.07549343,2023/02/16 05:00:00+00,1755,1755,1300 WESTCOTT ST     ,False,SIMPLE ASSAULT,43.027812,-76.118418,461
-8477231.08414438,5318644.53494196,2023/02/16 05:00:00+00,1823,1823,500 S  SALINA ST     ,False,OFFN AGAINST FAMILY,43.043823,-76.152262499,462
-8475452.25445256,5319900.33618167,2023/02/16 05:00:00+00,1815,1438,600 BURNET AVE    ,False,CRIMINAL MISCHIEF,43.0520670000001,-76.1362829999999,463
-8477843.73107328,5321556.71646705,2023/02/17 05:00:00+00,2056,2056,100 KIRKPATRICK ST     ,False,SIMPLE ASSAULT,43.062939,-76.157766,464
-8474613.18379072,5321497.75086921,2023/02/17 05:00:00+00,1025,1025,100 SEDGWICK RD     ,False,FRAUD,43.062552,-76.1287455,465
-8477231.08414438,5318644.53494196,2023/02/18 05:00:00+00,1403,1403,500 S  SALINA ST     ,False,OFFN AGAINST FAMILY,43.043823,-76.152262499,466
-8481857.24399434,5316015.57622515,2023/02/18 05:00:00+00,2230,2240,200 WINKWORTH PKWY   ,False,OFFN AGAINST FAMILY,43.0265610000001,-76.19382,467
-8477395.8926505,5319260.07581403,2023/02/18 05:00:00+00,300,300,400 S  CLINTON ST     ,False,CRIMINAL MISCHIEF,43.0478640000001,-76.153742999,468
-8473640.86369838,5316562.41548331,2023/02/18 05:00:00+00,1300,1400,200 KENSINGTON PL     ,False,CRIMINAL MISCHIEF,43.030152,-76.120011,469
-8472144.56276288,5322383.64534196,2023/02/19 05:00:00+00,227,227,100 S  EDWARDS AVE    ,False,CRIMINAL MISCHIEF,43.068366,-76.1065695,470
-8476189.13382187,5318142.81001696,2023/02/19 05:00:00+00,1440,1440,100 STEWART CT     ,False,SIMPLE ASSAULT,43.040529,-76.1429024999999,471
-8476767.21593756,5322038.05422117,2023/02/19 05:00:00+00,2134,2134,500 CARBON ST     ,True,CRIMINAL MISCHIEF,43.0660980000001,-76.1480955,472
-8476388.50702988,5321375.70697708,2023/02/20 05:00:00+00,35,35,800 BUTTERNUT ST     ,False,ALL OTHER OFFENSES,43.0617510000001,-76.1446935,473
-8474590.14065612,5314869.92150067,2023/02/20 05:00:00+00,1600,1600,1400 COMSTOCK AVE    ,False,SIMPLE ASSAULT,43.019037,-76.1285384999999,474
-8476767.21593756,5322038.05422117,2023/02/21 05:00:00+00,549,549,500 CARBON ST     ,False,POSSESSION/USE DANGEROUS WEAPONS,43.0660980000001,-76.1480955,475
-8476388.50702988,5321375.70697708,2023/02/21 05:00:00+00,800,800,800 BUTTERNUT ST     ,False,POSSESSION/USE DRUG,43.0617510000001,-76.1446935,476
-8477819.18512556,5322168.33508655,2023/02/21 05:00:00+00,854,854,900 N  ALVORD ST     ,False,OFFN AGAINST FAMILY,43.0669530000001,-76.1575455,477
-8479620.05618786,5322321.931704,2023/02/20 05:00:00+00,1135,1135,1 DESTINY USA DR,False,SIMPLE ASSAULT,43.067961,-76.1737229999999,478
-8476833.8406528,5322737.47807061,2023/02/21 05:00:00+00,1001,1001,700 FIRST NORTH ST     ,False,SIMPLE ASSAULT,43.0706880000001,-76.148694,479
-8476769.7206261,5319449.27024237,2023/02/21 05:00:00+00,1020,1020,300 E  WASHINGTON ST     ,False,OFFN AGAINST FAMILY,43.0491060000001,-76.148118,480
-8472455.64507991,5320925.94100555,2023/02/21 05:00:00+00,1605,1605,500 WOODBINE AVE    ,False,SIMPLE ASSAULT,43.0587990000001,-76.109364,481
-8477231.08414438,5318644.53494196,2023/02/21 05:00:00+00,1558,1558,500 S  SALINA ST     ,False,ALL OTHER OFFENSES,43.043823,-76.152262499,482
-8478551.55605549,5318426.56916521,2023/02/21 05:00:00+00,1702,1702,400 SEYMOUR ST     ,False,FRAUD,43.0423920000001,-76.1641245,483
-8477789.12886305,5317473.88534935,2023/02/21 05:00:00+00,1948,1948,200 LINCOLN AVE    ,True,CRIMINAL MISCHIEF,43.0361370000001,-76.1572755,484
-8477789.12886305,5317473.88534935,2023/02/21 05:00:00+00,2035,2035,200 LINCOLN AVE    ,False,CRIMINAL MISCHIEF,43.0361370000001,-76.1572755,485
-8477231.08414438,5318644.53494196,2023/02/21 05:00:00+00,1755,1755,500 S  SALINA ST     ,False,OFFN AGAINST FAMILY,43.043823,-76.152262499,486
-8475016.43864611,5319059.91776306,2023/02/21 05:00:00+00,2200,1845,500 WALNUT AVE    ,False,CRIMINAL MISCHIEF,43.04655,-76.132368,487
-8479936.14788198,5319649.43663423,2023/02/22 05:00:00+00,2,2,600 RICHMOND AVE    ,False,CRIMINAL MISCHIEF,43.05042,-76.1765625,488
-8477642.35400311,5321881.71958129,2023/02/22 05:00:00+00,47,47,300 W  KIRKPATRICK ST     ,False,OFFN AGAINST FAMILY,43.065072,-76.155956999,489
-8476381.99483967,5318133.21444758,2023/02/22 05:00:00+00,1913,1913,100 DABLON CT     ,False,SIMPLE ASSAULT,43.040466,-76.1446349999999,490
-8477663.8944359,5316554.19209964,2023/02/23 05:00:00+00,131,131,500 CORTLAND AVE    ,False,SIMPLE ASSAULT,43.0300980000001,-76.1561505,491
-8476730.14654713,5313270.89898692,2023/02/23 05:00:00+00,1222,1222,3200 MIDLAND AVE    ,False,SIMPLE ASSAULT,43.0085340000001,-76.1477624999999,492
-8476502.88580292,5321180.31116938,2003/10/03 04:00:00+00,1745,1900,0 700 BUTTERNUT ST     ,False,DRIVING UNDER INFLUENCE,43.0604685540001,-76.1457209819999,493
-8471581.32109378,5322781.36355868,2023/01/01 05:00:00+00,13,13,1000 TYSON PL     ,False,SIMPLE ASSAULT,43.070975989,-76.1015098139999,494
-8474629.92902511,5323065.23727108,2023/01/01 05:00:00+00,57,57,900 GRANT BLVD   ,False,SIMPLE ASSAULT,43.0728388160001,-76.1288959249999,495
-8476979.33923477,5322300.89399897,2023/01/01 05:00:00+00,107,107,700 POND ST     ,False,SIMPLE ASSAULT,43.0678229380001,-76.1500010359999,496
-8473615.38110847,5318897.04482648,2023/01/01 05:00:00+00,113,113,300 WESTCOTT ST     ,False,POSSESSION/USE DANGEROUS WEAPONS,43.045480749,-76.119782086,497
-8477384.97398956,5319283.99285532,2023/01/01 05:00:00+00,153,153,100 WALTON ST     ,False,SIMPLE ASSAULT,43.0480210090001,-76.153644915,498
-8475963.83508369,5313040.25764663,2023/01/01 05:00:00+00,157,157,100 STEVENS AVE    ,True,SIMPLE ASSAULT,43.0070189100001,-76.1408786069999,499
-8476334.90658375,5320234.87939284,2023/02/23 05:00:00+00,1459,1459,600 JAMES ST     ,False,OFFN AGAINST FAMILY,43.054263,-76.1442119989999,500
-8477840.01912486,5318444.0408159,2023/01/01 05:00:00+00,251,251,800 S  WEST ST     ,False,POSSESSION/USE DANGEROUS WEAPONS,43.042506707,-76.157732655,501
-8475444.74038693,5319048.95032253,2023/04/01 04:00:00+00,2305,2305,1000 E  GENESEE ST     ,False,POSSESSION/USE DRUG,43.046478,-76.1362154999999,502
-8476707.42635038,5319200.73520718,2023/02/01 05:00:00+00,1410,1410,500 S  STATE ST     ,False,OFFN AGAINST FAMILY,43.0474744430001,-76.147558401,503
-8477443.98289316,5319085.96548592,2023/04/13 04:00:00+00,315,315,500 S  CLINTON ST     ,False,SIMPLE ASSAULT,43.046721,-76.1541750009999,504
-8477291.19678073,5319070.88521648,2023/04/13 04:00:00+00,1123,1123,400 S  SALINA ST     ,True,DISORDERLY CONDUCT,43.0466220000001,-76.1528025,505
-8477231.08414438,5318644.53494196,2023/04/13 04:00:00+00,1208,1208,500 S  SALINA ST     ,False,ALL OTHER OFFENSES,43.043823,-76.152262499,506
-8476574.85596879,5315089.17469879,2023/04/13 04:00:00+00,1417,1417,200 W  BRIGHTON AVE    ,False,SIMPLE ASSAULT,43.020477,-76.146367501,507
-8476631.03001023,5321087.4006888,2023/01/22 05:00:00+00,902,902,600 BUTTERNUT ST     ,False,POSSESSION/USE DRUG,43.0598587430001,-76.1468721209999,508
-8480831.32356719,5320197.85967756,2023/04/13 04:00:00+00,1606,1606,1900 E  FAYETTE ST     ,False,OFFN AGAINST FAMILY,43.05402,-76.184604,509
-8476707.42635038,5319200.73520718,2023/02/01 05:00:00+00,1410,1410,500 S  STATE ST     ,False,OFFN AGAINST FAMILY,43.0474744430001,-76.147558401,510
-8477092.82544813,5318776.13938196,2023/04/13 04:00:00+00,2122,2122,100 ONONDAGA AVE    ,False,OFFN AGAINST FAMILY,43.0446870000001,-76.1510205,511
-8476648.33139682,5317061.15849756,2023/01/21 05:00:00+00,2214,2214,1400 S  STATE ST     ,True,SIMPLE ASSAULT,43.033426977,-76.147027542,512
-8477573.72564836,5312729.73222411,2023/04/13 04:00:00+00,1310,1312,200 ENGLEWOOD AVE    ,False,CRIMINAL MISCHIEF,43.004979,-76.1553405,513
-8474752.38647624,5319893.97357837,2023/02/01 05:00:00+00,1543,1543,800 BURNET AVE    ,False,SIMPLE ASSAULT,43.052025234,-76.1299959789999,514
-8476075.42096203,5318278.51983894,2023/04/14 04:00:00+00,153,153,100 LIGHT CT     ,False,OFFN AGAINST FAMILY,43.0414200000001,-76.141881,515
-8478477.62466283,5314433.30259897,2023/02/01 05:00:00+00,1715,1715,100 HUTCHINSON AVE    ,False,SIMPLE ASSAULT,43.016169296,-76.163460363,516
-8476707.42635038,5319200.73520718,2023/02/01 05:00:00+00,1410,1410,500 S  STATE ST     ,False,OFFN AGAINST FAMILY,43.0474744430001,-76.147558401,517
-8475322.01064834,5322561.9314755,2023/04/14 04:00:00+00,700,705,600 HELEN ST     ,False,SIMPLE ASSAULT,43.069536,-76.1351129999999,518
-8476707.42635038,5319200.73520718,2023/02/01 05:00:00+00,1410,1410,500 S  STATE ST     ,False,OFFN AGAINST FAMILY,43.0474744430001,-76.147558401,519
-8476817.90716013,5316144.27351159,2023/02/01 05:00:00+00,1925,1925,200 W  BORDEN AVE    ,False,POSSESSION/USE DANGEROUS WEAPONS,43.027406152,-76.148550867,520
-8476142.32698162,5323139.22353589,2023/02/01 05:00:00+00,2047,2047,100 HOOD AVE    ,False,CRIMINAL MISCHIEF,43.0733243170001,-76.142482027,521
-8478420.31037584,5317664.41434322,2023/04/14 04:00:00+00,1110,1110,700 W  ONONDAGA ST     ,True,CRIMINAL MISCHIEF,43.0373880000001,-76.1629455,522
-8476023.01931549,5321575.4377413,2023/02/01 05:00:00+00,2025,2025,800 HIGHLAND ST     ,False,OFFN AGAINST FAMILY,43.0630618700001,-76.141410268,523
-8477092.49160098,5321436.74533155,2023/02/01 05:00:00+00,2246,2246,100 MARY ST     ,False,SIMPLE ASSAULT,43.0621516090001,-76.151017501,524
-8477794.02547348,5322593.00359205,2023/02/02 05:00:00+00,214,214,900 CARBON ST     ,False,ALL OTHER OFFENSES,43.069739908,-76.1573194869999,525
-8477887.69793068,5315503.35040857,2023/02/01 05:00:00+00,2227,2227,1200 W  COLVIN ST     ,False,OFFN AGAINST FAMILY,43.0231971100001,-76.158160961,526
-8476707.42635038,5319200.73520718,2023/02/01 05:00:00+00,1846,1846,500 S  STATE ST     ,False,FRAUD,43.0474744430001,-76.147558401,527
-8478496.87569897,5317030.37966069,2023/02/02 05:00:00+00,220,220,200 COOLIDGE AVE    ,False,SIMPLE ASSAULT,43.033224874,-76.163633298,528
-8479427.31005178,5316577.56708667,2023/02/02 05:00:00+00,757,757,500 STOLP AVE    ,True,CRIMINAL MISCHIEF,43.0302514950001,-76.1719915319999,529
-8473073.01451556,5319740.45770209,2023/02/02 05:00:00+00,1035,1035,2000 ERIE BLVD E ,False,OFFN AGAINST FAMILY,43.051017502,-76.114909924,530
-8479719.56445805,5318740.58635116,2023/02/02 05:00:00+00,1131,1131,200 MAGNOLIA ST     ,False,OFFN AGAINST FAMILY,43.044453591,-76.174616898,531
-8476023.01931549,5321575.4377413,2023/02/02 05:00:00+00,1146,1146,800 HIGHLAND ST     ,False,POSSESSION/USE DRUG,43.0630618700001,-76.141410268,532
-8480523.04238251,5316928.83685384,2023/02/02 05:00:00+00,1750,1750,100 REED AVE    ,False,SIMPLE ASSAULT,43.032558109,-76.181834663,533
-8477854.76951399,5321576.44473269,2023/02/02 05:00:00+00,1403,1403,300 BASIN ST     ,True,CRIMINAL MISCHIEF,43.063068479,-76.15786516,534
-8476116.2035254,5313612.55726969,2023/02/02 05:00:00+00,2049,2049,100 BALLANTYNE RD     ,False,SIMPLE ASSAULT,43.0107782950001,-76.142247356,535
-8474917.32778651,5312871.07526283,2023/02/02 05:00:00+00,1537,1537,800 E  BRIGHTON AVE    ,False,SIMPLE ASSAULT,43.005907522,-76.131477672,536
-8477756.95719624,5315506.08696401,2023/02/02 05:00:00+00,2319,2319,1100 W  COLVIN ST     ,False,CRIMINAL MISCHIEF,43.023215082,-76.1569864969999,537
-8477395.8926505,5319260.07581403,2023/04/15 04:00:00+00,12,20,400 S  CLINTON ST     ,False,ALL OTHER OFFENSES,43.0478640000001,-76.153742999,538
-8476912.28760928,5319373.45369499,2023/02/03 05:00:00+00,107,107,300 MONTGOMERY ST     ,False,SIMPLE ASSAULT,43.048608292,-76.1493987009999,539
-8476515.01662179,5318308.23857295,2023/02/02 05:00:00+00,2200,2257,1000 S  TOWNSEND ST     ,True,CRIMINAL MISCHIEF,43.0416151160001,-76.145829955,540
-8476242.81152374,5321892.16314128,2023/02/03 05:00:00+00,1334,1334,100 SPRING ST     ,False,SIMPLE ASSAULT,43.0651405400001,-76.143384695,541
-8477152.45172962,5322021.08950058,2023/02/03 05:00:00+00,441,441,1200 PARK ST     ,False,OFFN AGAINST FAMILY,43.065986664,-76.1515561319999,542
-8474889.71810377,5311719.9175007,2023/02/03 05:00:00+00,1605,1605,200 LAFAYETTE RD     ,False,SIMPLE ASSAULT,42.9983448360001,-76.13122965,543
-8476817.90716013,5316144.27351159,2023/02/03 05:00:00+00,1657,1657,200 W  BORDEN AVE    ,False,OFFN AGAINST FAMILY,43.027406152,-76.148550867,544
-8481669.63859234,5319915.03115201,2023/02/03 05:00:00+00,1717,1717,300 ERIE ST     ,False,OFFN AGAINST FAMILY,43.0521634620001,-76.192134712,545
-8473143.89842584,5322380.59225966,2023/02/03 05:00:00+00,1805,1805,2300 JAMES ST     ,False,CRIMINAL MISCHIEF,43.0683459640001,-76.115546685,546
-8476678.30906777,5317786.47373563,2023/02/03 05:00:00+00,1822,1822,300 BURT ST     ,False,OFFN AGAINST FAMILY,43.03818942,-76.147296836,547
-8476241.10377143,5316269.52464159,2023/02/03 05:00:00+00,1943,1943,300 BAKER AVE    ,False,CRIMINAL MISCHIEF,43.0282286620001,-76.143369354,548
-8478793.50896873,5316562.41548331,2023/04/15 04:00:00+00,1105,1110,300 SUMMIT AVE    ,True,SIMPLE ASSAULT,43.030152,-76.166298,549
-8479141.77767297,5317679.31323462,2023/02/03 05:00:00+00,1901,1901,500 DELAWARE ST     ,False,POSSESSION/USE DRUG,43.037485824,-76.169426551,550
-8475558.72675877,5323003.45192533,2023/02/03 05:00:00+00,900,900,1500 GRANT BLVD   ,False,SIMPLE ASSAULT,43.0724333750001,-76.137239457,551
-8475994.18478438,5322974.46541715,2023/02/03 05:00:00+00,2300,2300,100 GREENLAND DR     ,False,POSSESSION/USE DANGEROUS WEAPONS,43.0722431620001,-76.141151243,552
-8478613.17139364,5323096.81029663,2023/04/15 04:00:00+00,1127,1127,300 HIAWATHA BLVD E ,False,SIMPLE ASSAULT,43.073046,-76.164678,553
-8477709.31200891,5312172.05359556,2023/02/04 05:00:00+00,211,211,200 KRAMER DR     ,False,SIMPLE ASSAULT,43.001315316,-76.156558493,554
-8472050.96377655,5318953.26208257,2023/02/03 05:00:00+00,2241,2241,600 SALT SPRINGS RD     ,False,SIMPLE ASSAULT,43.0458498140001,-76.105728686,555
-8478472.56252031,5322967.18287837,2023/02/04 05:00:00+00,345,345,400 WOLF ST     ,False,SIMPLE ASSAULT,43.0721953730001,-76.163414889,556
-8477612.29751796,5322494.22699169,2023/02/04 05:00:00+00,2215,2215,800 CARBON ST     ,True,CRIMINAL MISCHIEF,43.0690916930001,-76.155686997,557
-8477978.39648768,5312652.48341339,2023/02/04 05:00:00+00,0,2300,700 BARNES AVE    ,False,OFFN AGAINST FAMILY,43.004471525,-76.1589757199999,558
-8474674.4606063,5312165.99367544,2023/02/04 05:00:00+00,930,1000,100 LAFAYETTE RD     ,False,CRIMINAL MISCHIEF,43.001275504,-76.129295959,559
-8476634.19883086,5315496.74686541,2023/02/05 05:00:00+00,25,25,100 FERNWOOD AVE    ,False,SIMPLE ASSAULT,43.023153742,-76.1469005869999,560
-8477732.52980379,5317887.84096102,2023/02/05 05:00:00+00,136,136,200 MIDLAND AVE    ,False,KIDNAPPING,43.038854971,-76.156767062,561
-8479981.45691848,5316671.09929499,2023/02/05 05:00:00+00,314,314,700 ARTHUR ST     ,False,SIMPLE ASSAULT,43.0308656830001,-76.176969518,562
-8482179.34694095,5320077.20384593,2023/04/15 04:00:00+00,1714,1714,200 DRISCOLL AVE    ,False,OFFN AGAINST FAMILY,43.053228,-76.1967135,563
-8476206.52448668,5313073.40419701,2023/02/05 05:00:00+00,244,244,100 W  FLORENCE AVE    ,False,SIMPLE ASSAULT,43.0072366530001,-76.143058723,564
-8477382.0499605,5318739.12727371,2023/02/05 05:00:00+00,700,700,100 DICKERSON ST     ,False,OFFN AGAINST FAMILY,43.044444012,-76.153618648,565
-8476219.19008438,5321887.20496296,2023/04/15 04:00:00+00,1751,1751,1100 BUTTERNUT ST     ,False,CRIMINAL MISCHIEF,43.0651080000001,-76.1431724999999,566
-8480351.15150775,5319376.20737861,2023/02/05 05:00:00+00,845,845,200 TOMPKINS ST     ,False,SIMPLE ASSAULT,43.048626369,-76.180290541,567
-8479549.36474899,5319628.26571267,2023/02/05 05:00:00+00,1233,1233,400 RICHMOND AVE    ,False,SIMPLE ASSAULT,43.0502810240001,-76.1730879679999,568
-8477622.81743248,5314919.25302193,2023/04/15 04:00:00+00,2004,2004,600 W  BRIGHTON AVE    ,False,CRIMINAL MISCHIEF,43.0193610000001,-76.1557814989999,569
-8477765.01260856,5324235.00103532,2023/02/05 05:00:00+00,1653,1653,1100 WOLF ST     ,False,SIMPLE ASSAULT,43.080514405,-76.1570588599999,570
-8477722.33727989,5321863.78301522,2023/02/05 05:00:00+00,828,828,1100 N  SALINA ST     ,True,CRIMINAL MISCHIEF,43.0649542840001,-76.1566755009999,571
-8476615.51452225,5315375.81368286,2023/02/05 05:00:00+00,1926,1926,300 WARNER AVE    ,False,SIMPLE ASSAULT,43.022359522,-76.146732743,572
-8475465.7797707,5320451.5162231,2023/04/15 04:00:00+00,2346,2346,100 GREEN ST     ,False,SIMPLE ASSAULT,43.055685,-76.1364045,573
-8477382.0499605,5318739.12727371,2023/02/05 05:00:00+00,1950,1950,100 DICKERSON ST     ,False,OFFN AGAINST FAMILY,43.044444012,-76.153618648,574
-8471945.81650624,5321733.93287909,2023/02/05 05:00:00+00,1706,1706,300 S  MIDLER AVE    ,True,POSSESSION/USE DANGEROUS WEAPONS,43.0641020830001,-76.104784132,575
-8476242.81152374,5321892.16314128,2023/02/05 05:00:00+00,2253,2253,100 SPRING ST     ,False,SIMPLE ASSAULT,43.0651405400001,-76.143384695,576
-8477602.60693365,5319381.70743641,2023/02/05 05:00:00+00,2319,2319,300 S  FRANKLIN ST     ,True,CRIMINAL MISCHIEF,43.0486624750001,-76.1555999449999,577
-8476102.21957096,5323785.34242024,2023/02/06 05:00:00+00,44,44,100 LOMA AVE    ,True,CRIMINAL MISCHIEF,43.077564013,-76.142121736,578
-8476242.81152374,5321892.16314128,2023/02/06 05:00:00+00,746,746,100 SPRING ST     ,False,SIMPLE ASSAULT,43.0651405400001,-76.143384695,579
-8476852.013671,5322540.59913182,2023/02/06 05:00:00+00,1032,1032,800 POND ST     ,False,CRIMINAL MISCHIEF,43.0693960080001,-76.148857251,580
-8476328.79937385,5316147.02015277,2023/02/05 05:00:00+00,2229,2229,1800 S  STATE ST     ,False,SIMPLE ASSAULT,43.027424189,-76.144157137,581
-8479620.05618786,5322321.931704,2023/04/16 04:00:00+00,511,530,1 DESTINY USA DR,True,CRIMINAL MISCHIEF,43.067961,-76.1737229999999,582
-8474033.75860536,5318604.77644756,2023/02/06 05:00:00+00,838,838,600 S  BEECH ST     ,True,CRIMINAL MISCHIEF,43.0435619780001,-76.1235404349999,583
-8476478.15328374,5319639.15096292,2023/02/06 05:00:00+00,800,830,500 E  WATER ST     ,True,CRIMINAL MISCHIEF,43.0503524800001,-76.145498806,584
-8477917.56673118,5323605.09501494,2023/02/06 05:00:00+00,1150,1150,3000 GRANT BLVD   ,False,ALL OTHER OFFENSES,43.0763812970001,-76.158429277,585
-8477234.08988195,5322785.47966716,2023/04/16 04:00:00+00,2139,2139,1000 FIRST NORTH ST     ,True,CRIMINAL MISCHIEF,43.0710030000001,-76.1522894999999,586
-8481180.45176922,5319968.49214327,2023/02/06 05:00:00+00,1310,1310,500 EMERSON AVE    ,False,OFFN AGAINST FAMILY,43.0525143940001,-76.187740272,587
-8476152.96678723,5320954.59282894,2023/02/06 05:00:00+00,1907,1907,100 ROSEWOOD ST     ,False,SIMPLE ASSAULT,43.0589870580001,-76.142577606,588
-8477463.37608429,5321120.25019902,2023/02/06 05:00:00+00,1046,1046,1000 N  STATE ST     ,False,SIMPLE ASSAULT,43.060074349,-76.154349213,589
-8478137.92199341,5316115.15188595,2023/02/06 05:00:00+00,2044,2044,0 CENTENNIAL DR     ,False,SIMPLE ASSAULT,43.027214912,-76.160408762,590
-8476453.79168109,5320965.09431449,2023/02/06 05:00:00+00,2134,2134,700 E  LAUREL ST     ,False,SIMPLE ASSAULT,43.059055985,-76.145279962,591
-8476242.81152374,5321892.16314128,2023/02/06 05:00:00+00,2153,2153,100 SPRING ST     ,False,CRIMINAL MISCHIEF,43.0651405400001,-76.143384695,592
-8475420.9956056,5321613.92762275,2023/02/07 05:00:00+00,1138,1138,800 OAK ST     ,False,OFFN AGAINST FAMILY,43.0633144830001,-76.136002197,593
-8476634.19883086,5315496.74686541,2023/02/07 05:00:00+00,104,104,100 FERNWOOD AVE    ,False,CRIMINAL MISCHIEF,43.023153742,-76.1469005869999,594
-8477665.39724903,5319413.6246224,2023/04/01 04:00:00+00,101,101,300 W  FAYETTE ST     ,False,SIMPLE ASSAULT,43.0488720000001,-76.156164,595
-8477789.12886305,5317473.88534935,2023/04/17 04:00:00+00,2028,2028,200 LINCOLN AVE    ,False,SIMPLE ASSAULT,43.0361370000001,-76.1572755,596
-8476328.89544256,5318090.71990164,2023/04/18 04:00:00+00,21,21,1100 S  MCBRIDE ST     ,False,POSSESSION/USE DRUG,43.0401870000001,-76.1441579999999,597
-8477266.650833,5321857.03540366,2023/04/18 04:00:00+00,917,917,700 N  ALVORD ST     ,False,SIMPLE ASSAULT,43.0649100000001,-76.1525819999999,598
-8476707.42635038,5319200.73520718,2023/02/07 05:00:00+00,1500,1600,500 S  STATE ST     ,False,OFFN AGAINST FAMILY,43.0474744430001,-76.147558401,599
-8476707.42635038,5319200.73520718,2023/02/07 05:00:00+00,1716,1716,500 S  STATE ST     ,False,OFFN AGAINST FAMILY,43.0474744430001,-76.147558401,600
-8476211.17508105,5322419.30229642,2023/04/18 04:00:00+00,1500,1630,1300 BUTTERNUT ST     ,True,CRIMINAL MISCHIEF,43.0686000000001,-76.1431004999999,601
-8477064.86622219,5316936.46693663,2023/02/07 05:00:00+00,1544,1544,200 MARTIN LUTHER KING      W ,False,ALL OTHER OFFENSES,43.0326082110001,-76.150769338,602
-8476833.8406528,5322737.47807061,2023/04/18 04:00:00+00,1654,1654,700 FIRST NORTH ST     ,False,OFFN AGAINST FAMILY,43.0706880000001,-76.148694,603
-8477819.18512556,5322168.33508655,2023/03/18 04:00:00+00,2309,2309,900 N  ALVORD ST     ,True,CRIMINAL MISCHIEF,43.0669530000001,-76.1575455,604
-8481088.49530197,5316843.15974557,2023/01/18 05:00:00+00,2030,820,500 VELASKO RD     ,True,CRIMINAL MISCHIEF,43.031995518,-76.186914213,605
-8476774.39671263,5316013.9263144,2023/01/17 05:00:00+00,2145,2145,200 W  BEARD AVE    ,True,CRIMINAL MISCHIEF,43.0265501650001,-76.148160006,606
-8471419.42437159,5319320.50671813,2023/01/26 05:00:00+00,326,326,200 HARWOOD AVE    ,False,SIMPLE ASSAULT,43.0482607120001,-76.100055471,607
-8477382.0499605,5318739.12727371,2023/01/18 05:00:00+00,1015,1015,100 DICKERSON ST     ,False,OFFN AGAINST FAMILY,43.044444012,-76.153618648,608
-8476758.88300576,5321801.56907551,2023/01/18 05:00:00+00,302,302,700 E  DIVISION ST     ,True,OFFN AGAINST FAMILY,43.0645459780001,-76.148020644,609
-8480179.10267063,5317802.85871067,2023/03/19 04:00:00+00,225,225,100 LYDELL ST     ,True,CRIMINAL MISCHIEF,43.0382970000001,-76.1787449999999,610
-8477085.23924747,5318475.64087567,2023/01/18 05:00:00+00,1121,1121,700 S  WARREN ST     ,False,OFFN AGAINST FAMILY,43.0427141710001,-76.1509523519999,611
-8473857.26878848,5321278.34726267,2023/03/19 04:00:00+00,838,838,400 BOYDEN ST     ,False,SIMPLE ASSAULT,43.061112,-76.121955,612
-8472663.52098194,5322638.20880863,2023/01/18 05:00:00+00,1526,1526,100 FOBES AVE    ,False,SIMPLE ASSAULT,43.070036562,-76.111231381,613
-8473646.78667453,5322060.33669159,2023/01/26 05:00:00+00,949,949,1900 JAMES ST     ,False,OFFN AGAINST FAMILY,43.0662442350001,-76.120064207,614
-8473999.6778093,5320190.47677559,2023/01/18 05:00:00+00,1509,1509,300 WINTON ST     ,False,CRIMINAL MISCHIEF,43.053971538,-76.1232342819999,615
-8476428.08110886,5318452.61512264,2023/04/02 04:00:00+00,300,330,100 WEISER CT     ,False,SIMPLE ASSAULT,43.042563,-76.145049,616
-8478042.10240587,5317965.97896355,2023/03/19 04:00:00+00,1730,1730,600 W  ONONDAGA ST     ,False,OFFN AGAINST FAMILY,43.039368,-76.159548,617
-8476201.57121462,5320346.27976116,2023/01/18 05:00:00+00,1201,1201,700 JAMES ST     ,False,OFFN AGAINST FAMILY,43.054994234,-76.143014227,618
-8478735.90113224,5315594.84699272,2023/04/02 04:00:00+00,1426,1426,500 SUMMIT AVE    ,False,CRIMINAL MISCHIEF,43.0237980000001,-76.1657805,619
-8476775.57224646,5319925.88413564,2023/01/26 05:00:00+00,1004,1004,100 BURNET AVE    ,False,OFFN AGAINST FAMILY,43.0522347040001,-76.148170566,620
-8476893.06763128,5320467.80410322,2023/01/18 05:00:00+00,1512,1512,300 PROSPECT AVE    ,False,OFFN AGAINST FAMILY,43.0557919120001,-76.149226045,621
-8476411.45554291,5321608.3493052,2023/01/29 05:00:00+00,354,354,800 PARK ST     ,False,SIMPLE ASSAULT,43.0632778720001,-76.14489965,622
-8479353.55732691,5318943.38936565,2023/03/19 04:00:00+00,1852,1852,200 S  GEDDES ST     ,False,CRIMINAL MISCHIEF,43.0457850000001,-76.171329,623
-8473902.13310362,5321299.88622181,2023/01/18 05:00:00+00,1624,1624,1100 TEALL AVE    ,False,CRIMINAL MISCHIEF,43.0612533670001,-76.1223580229999,624
-8475285.94313332,5321799.43924285,2023/04/02 04:00:00+00,1805,1939,200 HELEN ST     ,False,SIMPLE ASSAULT,43.064532,-76.134789,625
-8480179.10267063,5317802.85871067,2023/03/19 04:00:00+00,1914,1914,100 LYDELL ST     ,False,CRIMINAL MISCHIEF,43.0382970000001,-76.1787449999999,626
-8478554.39091764,5318555.26340464,2023/01/18 05:00:00+00,1759,1759,500 GIFFORD ST     ,False,SIMPLE ASSAULT,43.043236914,-76.164149966,627
-8477343.79524012,5322594.84621076,2023/04/02 04:00:00+00,2122,2122,1000 SPRING ST     ,False,SIMPLE ASSAULT,43.0697520000001,-76.153275,628
-8473395.4608828,5317576.94825944,2023/01/26 05:00:00+00,1035,1035,100 ROOSEVELT AVE    ,False,POSSESSION/USE DRUG,43.0368137070001,-76.1178065089999,629
-8476893.06763128,5320467.80410322,2023/01/18 05:00:00+00,1924,1924,300 PROSPECT AVE    ,False,OFFN AGAINST FAMILY,43.0557919120001,-76.149226045,630
-8476515.01662179,5318308.23857295,2023/01/29 05:00:00+00,329,329,1000 S  TOWNSEND ST     ,False,KIDNAPPING,43.0416151160001,-76.145829955,631
-8479620.05618786,5322321.931704,2023/03/19 04:00:00+00,1642,1642,1 DESTINY USA DR,False,SIMPLE ASSAULT,43.067961,-76.1737229999999,632
-8479620.05618786,5322321.931704,2023/03/01 05:00:00+00,1756,1756,1 DESTINY USA DR,False,OFFN AGAINST FAMILY,43.067961,-76.1737229999999,633
-8477369.95988456,5316625.29338914,2023/01/19 05:00:00+00,120,120,300 FURMAN ST     ,False,SIMPLE ASSAULT,43.0305648950001,-76.1535100409999,634
-8478042.10240587,5317965.97896355,2023/04/03 04:00:00+00,217,217,600 W  ONONDAGA ST     ,False,CRIMINAL MISCHIEF,43.039368,-76.159548,635
-8479353.55732691,5318943.38936565,2023/03/19 04:00:00+00,1957,1957,200 N  GEDDES ST     ,False,SIMPLE ASSAULT,43.0457850000001,-76.171329,636
-8477552.43245616,5312988.2041768,2023/01/07 05:00:00+00,1532,1532,100 MAXWELL AVE    ,False,STOLEN PROPERTY,43.0066769640001,-76.1551492199999,637
-8475413.93516689,5321479.49796863,2023/01/19 05:00:00+00,143,143,700 OAK ST     ,False,SIMPLE ASSAULT,43.0624322030001,-76.135938772,638
-8475991.7643647,5318284.00310549,2023/04/03 04:00:00+00,1600,800,100 FRISBIE CT     ,True,CRIMINAL MISCHIEF,43.041456,-76.1411295,639
-8476767.21593756,5322038.05422117,2023/03/20 04:00:00+00,27,27,500 CARBON ST     ,False,SIMPLE ASSAULT,43.0660980000001,-76.1480955,640
-8476328.89544256,5318090.71990164,2023/03/01 05:00:00+00,2055,2055,1100 S  MCBRIDE ST     ,False,POSSESSION/USE DANGEROUS WEAPONS,43.0401870000001,-76.1441579999999,641
-8477523.9814207,5322219.83462332,2023/01/19 05:00:00+00,307,307,1300 PARK ST     ,True,CRIMINAL MISCHIEF,43.067290975,-76.15489364,642
-8475701.13622487,5320682.19898866,2023/01/29 05:00:00+00,433,433,900 JAMES ST     ,False,CRIMINAL MISCHIEF,43.057199161,-76.138518743,643
-8475599.02920118,5315356.39648669,2023/03/19 04:00:00+00,2343,2343,100 CLIFFSIDE DR     ,False,SIMPLE ASSAULT,43.022232,-76.1376015,644
-8477395.8926505,5319260.07581403,2023/03/20 04:00:00+00,130,2335,400 S  CLINTON ST     ,False,SIMPLE ASSAULT,43.0478640000001,-76.153742999,645
-8477463.37608429,5321120.25019902,2023/01/26 05:00:00+00,1010,1010,1000 N  STATE ST     ,False,POSSESSION/USE DRUG,43.060074349,-76.154349213,646
-8479017.92906217,5315407.10097018,2023/03/20 04:00:00+00,922,922,100 COLUMBIA AVE    ,True,CRIMINAL MISCHIEF,43.022565,-76.168314,647
-8479276.11725522,5314974.80854391,2023/01/26 05:00:00+00,1435,1435,700 GLENWOOD AVE    ,False,OFFN AGAINST FAMILY,43.0197258760001,-76.170633344,648
-8476680.5538253,5318251.10355444,2023/03/20 04:00:00+00,1440,1440,200 CHAVEZ TER    ,False,SIMPLE ASSAULT,43.0412400000001,-76.147317001,649
-8478554.39091764,5318555.26340464,2023/01/26 05:00:00+00,1727,1727,500 GIFFORD ST     ,False,SIMPLE ASSAULT,43.043236914,-76.164149966,650
-8478287.06094537,5318163.37198452,2023/03/20 04:00:00+00,1918,1918,100 MERRIMAN AVE    ,False,POSSESSION/USE DRUG,43.040664,-76.1617485,651
-8477650.36911777,5323796.31344186,2023/03/20 04:00:00+00,1919,1919,400 BURDICK AVE    ,False,CRIMINAL MISCHIEF,43.077636,-76.156029,652
-8475119.91367503,5320571.77620768,2023/01/27 05:00:00+00,238,238,300 OAK ST     ,False,SIMPLE ASSAULT,43.05647437,-76.133297532,653
-8477567.71439586,5312688.6322306,2023/03/20 04:00:00+00,1900,2200,100 SMITH LN     ,False,FRAUD,43.004709,-76.1552865,654
-8479620.05618786,5322321.931704,2023/03/20 04:00:00+00,1446,1446,1 DESTINY USA DR,False,OFFN AGAINST FAMILY,43.067961,-76.1737229999999,655
-8476231.24086455,5321707.32467355,2023/01/27 05:00:00+00,818,818,100 S  CARBON ST     ,False,OFFN AGAINST FAMILY,43.0639274530001,-76.143280754,656
-8475322.01064834,5322561.9314755,2023/03/21 04:00:00+00,8,8,600 HELEN ST     ,False,SIMPLE ASSAULT,43.069536,-76.1351129999999,657
-8477738.03321677,5323848.43538152,2023/03/21 04:00:00+00,329,600,1000 LEMOYNE AVE    ,False,CRIMINAL MISCHIEF,43.077978,-76.1568164999999,658
-8470980.02953219,5319187.85680202,2023/01/27 05:00:00+00,930,930,1100 SALT SPRINGS RD     ,False,ALL OTHER OFFENSES,43.0473898990001,-76.09610832,659
-8472129.03369392,5322766.27899893,2023/03/21 04:00:00+00,1500,800,200 N  EDWARDS AVE    ,True,CRIMINAL MISCHIEF,43.0708770000001,-76.10643,660
-8476411.61016568,5313859.62656836,2023/01/27 05:00:00+00,1213,1213,200 HALL AVE    ,False,SIMPLE ASSAULT,43.0124012000001,-76.1449010389999,661
-8477574.72752377,5313402.42779194,2023/03/21 04:00:00+00,1525,1525,300 SHIRLEY DR     ,False,SIMPLE ASSAULT,43.009398,-76.1553494999999,662
-8475672.01103858,5320386.93826944,2023/01/27 05:00:00+00,1414,1414,700 LODI ST     ,False,SIMPLE ASSAULT,43.0552611150001,-76.138257107,663
-8478118.7253925,5317445.74480508,2023/01/27 05:00:00+00,1543,1543,100 HUDSON ST     ,False,SIMPLE ASSAULT,43.035952229,-76.160236316,664
-8479353.55732691,5318943.38936565,2023/03/21 04:00:00+00,1723,1723,200 N  GEDDES ST     ,True,CRIMINAL MISCHIEF,43.0457850000001,-76.171329,665
-8476116.2035254,5313612.55726969,2023/01/27 05:00:00+00,1924,1924,100 BALLANTYNE RD     ,False,SIMPLE ASSAULT,43.0107782950001,-76.142247356,666
,,2023/01/27 05:00:00+00,2318,2318,100 COYNE CIR    ,False,CRIMINAL MISCHIEF,,,667
-8471214.32143807,5318238.76625264,2023/03/22 04:00:00+00,1146,1146,3100 E  GENESEE ST     ,False,OFFN AGAINST FAMILY,43.0411590000001,-76.098213,668
-8477266.650833,5321857.03540366,2023/03/22 04:00:00+00,1615,1640,700 N  ALVORD ST     ,False,POSSESSION/USE DANGEROUS WEAPONS,43.0649100000001,-76.1525819999999,669
-8476769.7206261,5319449.27024237,2023/03/22 04:00:00+00,2130,1157,300 W  WASHINGTON ST     ,False,CRIMINAL MISCHIEF,43.0491060000001,-76.148118,670
-8478541.53730131,5318251.10355444,2023/03/23 04:00:00+00,925,935,700 OSWEGO ST     ,False,SIMPLE ASSAULT,43.0412400000001,-76.1640345,671
-8476833.8406528,5322737.47807061,2023/03/23 04:00:00+00,727,727,700 FIRST NORTH ST     ,True,OFFN AGAINST FAMILY,43.0706880000001,-76.148694,672
-8479033.45813113,5319617.90328794,2023/03/23 04:00:00+00,1655,1655,200 RICHMOND AVE    ,False,SIMPLE ASSAULT,43.050213,-76.1684534999999,673
-8475221.32228024,5314499.94338838,2023/03/23 04:00:00+00,1611,1700,600 IVY RIDGE RD     ,False,SIMPLE ASSAULT,43.0166070000001,-76.134208501,674
-8478042.10240587,5317965.97896355,2023/03/23 04:00:00+00,1611,1651,600 W  ONONDAGA ST     ,False,OFFN AGAINST FAMILY,43.039368,-76.159548,675
-8477567.71439586,5312688.6322306,2023/03/24 04:00:00+00,1700,1000,100 SMITH LN     ,False,ALL OTHER OFFENSES,43.004709,-76.1552865,676
-8476211.17508105,5322419.30229642,2023/03/23 04:00:00+00,2321,2321,1300 BUTTERNUT ST     ,False,CRIMINAL MISCHIEF,43.0686000000001,-76.1431004999999,677
-8477291.19678073,5319070.88521648,2023/03/24 04:00:00+00,44,44,400 N  SALINA ST     ,True,CRIMINAL MISCHIEF,43.0466220000001,-76.1528025,678
-8477417.934021,5321411.36008407,2023/03/24 04:00:00+00,128,128,800 N  SALINA ST     ,True,CRIMINAL MISCHIEF,43.061985,-76.153941,679
-8471046.5073057,5321840.57932147,2023/03/24 04:00:00+00,1646,1646,1200 N  GLENCOVE RD     ,False,OFFN AGAINST FAMILY,43.064802,-76.0967055,680
-8476680.05288759,5318393.66911223,2023/03/24 04:00:00+00,2200,2207,100 ANGELOU TER    ,False,SIMPLE ASSAULT,43.042176,-76.147312501,681
-8480678.03662837,5319990.82619624,2023/03/24 04:00:00+00,2101,2145,1800 W  FAYETTE ST     ,False,OFFN AGAINST FAMILY,43.0526610000001,-76.183227,682
-8477528.64125459,5321606.08330035,2023/03/24 04:00:00+00,930,930,900 N  SALINA ST     ,False,CRIMINAL MISCHIEF,43.0632630000001,-76.1549355,683
-8478989.37561278,5320197.85967756,2023/03/25 04:00:00+00,2323,13,900 W  GENESEE ST     ,False,SIMPLE ASSAULT,43.05402,-76.1680575,684
-8481198.00996986,5319623.38734052,2023/03/25 04:00:00+00,356,356,400 MILTON AVE    ,False,DRIVING UNDER INFLUENCE,43.0502490000001,-76.187898,685
-8478739.90863391,5315415.32334478,2023/03/25 04:00:00+00,427,520,600 SUMMIT AVE    ,False,SIMPLE ASSAULT,43.0226190000001,-76.1658164999999,686
-8477170.97161935,5320820.35883963,2023/03/25 04:00:00+00,900,1530,500 N  SALINA ST     ,False,SIMPLE ASSAULT,43.0581060000001,-76.151722499,687
-8477443.98289316,5319085.96548592,2023/03/25 04:00:00+00,1800,1930,500 S  CLINTON ST     ,False,SIMPLE ASSAULT,43.046721,-76.1541750009999,688
-8477498.58488076,5314534.20000593,2023/03/25 04:00:00+00,2348,2348,600 W  NEWELL ST     ,False,SIMPLE ASSAULT,43.0168320000001,-76.154665499,689
-8476632.96463167,5317985.16976873,2023/03/26 04:00:00+00,450,500,100 LATIMER TER    ,False,SIMPLE ASSAULT,43.039494,-76.1468895,690
-8474443.86684521,5320692.8391133,2023/03/26 04:00:00+00,1010,1045,100 ROBINSON ST     ,False,SIMPLE ASSAULT,43.0572690000001,-76.1272245,691
-8480014.29416451,5317565.72258091,2023/03/26 04:00:00+00,1806,1806,200 HARTSON ST     ,True,CRIMINAL MISCHIEF,43.0367400000001,-76.1772645,692
-8472898.47401428,5319247.73718003,2023/03/26 04:00:00+00,1340,1340,2100 E  FAYETTE ST     ,False,SIMPLE ASSAULT,43.047783,-76.113342,693
